uri,name,population,area,elevation,lat,lon,country,region,populationDensity,foundingYear,abstract,country_name,region_name,numTriples,numAttributes,hasAbstract,abstractLen
http://dbpedia.org/resource/Dusmareb,Dusmareb,680000407,,,5.534999847412109,46.38611221313477,http://dbpedia.org/resource/Somalia,,,,,Somalia,,,3,0,0
http://dbpedia.org/resource/Rabaul,Rabaul,388517044,,,-4.199999809265137,152.1833343505859,http://dbpedia.org/resource/Papua_New_Guinea,,,,,Papua_New_Guinea,,,3,0,0
http://dbpedia.org/resource/Beijing,Beijing,21893095,16410540000.0,43.5,39.90666580200195,116.3974990844727,,,,,,,,,4,0,0
http://dbpedia.org/resource/Chengdu,Chengdu,20937757,14378180000.0,500.0,30.65999984741211,104.0633316040039,http://dbpedia.org/resource/China,,,,,China,,,5,0,0
http://dbpedia.org/resource/Karachi,Karachi,18868021,,10.0,24.86000061035156,67.01000213623047,http://dbpedia.org/resource/Pakistan,,,,,Pakistan,,,4,0,0
http://dbpedia.org/resource/Guangzhou,Guangzhou,18676605,7434400000.0,21.0,23.1299991607666,113.2600021362305,http://dbpedia.org/resource/China,,,,,China,,,5,0,0
http://dbpedia.org/resource/Shenzhen,Shenzhen,17560000,1997000000.0,0.0,22.54150009155273,114.0596008300781,,,,,,,,,4,0,0
http://dbpedia.org/resource/Kinshasa,Kinshasa,17071000,9965000000.0,240.0,-4.321944236755371,15.31194400787354,http://dbpedia.org/resource/Democratic_Republic_of_the_Congo,,1462.0,,,Democratic_Republic_of_the_Congo,,,6,0,0
http://dbpedia.org/resource/Delhi,Delhi,16787941,1484000000.0,,28.61000061035156,77.2300033569336,http://dbpedia.org/resource/India,,11312.02104097658,,,India,,1240.0,5,0,0
http://dbpedia.org/resource/Tokyo,Tokyo,14254039,2194000000.0,,35.68972396850586,139.6922149658203,http://dbpedia.org/resource/Japan,,6363.0,,,Japan,,,5,0,0
http://dbpedia.org/resource/Ho_Chi_Minh_City,Ho Chi Minh City,14002598,6781000000.0,19.0,10.77555561065674,106.7019424438477,http://dbpedia.org/resource/Vietnam,,2067.0,,,Vietnam,,,6,0,0
http://dbpedia.org/resource/Tianjin,Tianjin,13866009,11946000000.0,5.0,39.13359832763672,117.2053985595703,http://dbpedia.org/resource/China,,,,,China,,,5,0,0
http://dbpedia.org/resource/Wuhan,Wuhan,13739000,8494410000.0,,30.59339904785156,114.3046035766602,http://dbpedia.org/resource/China,,,,,China,,1495.0,4,0,0
http://dbpedia.org/resource/Moscow,Moscow,13010112,2561498241.122304,156.0,55.59999847412109,37.59999847412109,,,5080.0,,,,,,5,0,0
http://dbpedia.org/resource/Lahore,Lahore,13004135,,,31.54972267150879,74.34361267089844,http://dbpedia.org/resource/Pakistan,,,,,Pakistan,,1274.0,3,0,0
http://dbpedia.org/resource/Xi'an,Xi'an,12952907,10762000000.0,405.0,34.26111221313477,108.9422225952148,,,,,,,,1006.0,4,0,0
http://dbpedia.org/resource/Suzhou,Suzhou,12748252,8657320000.0,,31.29999923706055,120.6194458007812,http://dbpedia.org/resource/China,,,,,China,,,4,0,0
http://dbpedia.org/resource/Zhengzhou,Zhengzhou,12600574,7567000000.0,,34.76399993896484,113.6839981079102,http://dbpedia.org/resource/China,,,,,China,,1003.0,4,0,0
http://dbpedia.org/resource/Mumbai,Mumbai,12442373,603400000.0,14.0,19.07611083984375,72.87750244140625,http://dbpedia.org/resource/India,,,,,India,,,5,0,0
http://dbpedia.org/resource/Hangzhou,Hangzhou,11936010,16821100000.0,,30.26700019836426,120.1529998779297,http://dbpedia.org/resource/China,,,,,China,,1077.0,4,0,0
http://dbpedia.org/resource/São_Paulo,São Paulo,11895578,1521193256.772305,762.0,-23.54999923706055,-46.63333511352539,http://dbpedia.org/resource/Brazil,,7819.86,,,Brazil,,,6,0,0
http://dbpedia.org/resource/Baoding,Baoding,11544036,22185000000.0,25.2984,38.87400054931641,115.463996887207,http://dbpedia.org/resource/China,,,,,China,,,5,0,0
http://dbpedia.org/resource/Shijiazhuang,Shijiazhuang,11235086,14072000000.0,83.0,38.04249954223633,114.5100021362305,,,,,,,,,4,0,0
http://dbpedia.org/resource/Linyi,Linyi,11018365,17192000000.0,74.3712,35.10380172729492,118.3563995361328,http://dbpedia.org/resource/China,,,,,China,,496.0,5,0,0
http://dbpedia.org/resource/Dongguan,Dongguan,10485300,2465000000.0,8.0,23.02099990844727,113.7519989013672,http://dbpedia.org/resource/China,,,,,China,,,5,0,0
http://dbpedia.org/resource/Changsha,Changsha,10420600,11819000000.0,63.0,28.22800064086914,112.9390029907227,http://dbpedia.org/resource/China,,,,,China,,,5,0,0
http://dbpedia.org/resource/Dhaka,Dhaka,10278882,306000000.0,32.0,23.76444435119629,90.38888549804688,,,,,,,,1390.0,4,0,0
http://dbpedia.org/resource/Lima,Lima,10092000,2672300000.0,0.0,-12.0600004196167,-77.0374984741211,http://dbpedia.org/resource/Peru,,,,,Peru,,,5,0,0
http://dbpedia.org/resource/Qingdao,Qingdao,10071722,11228400000.0,,36.06689834594727,120.382698059082,http://dbpedia.org/resource/China,,,,,China,,,4,0,0
http://dbpedia.org/resource/Harbin,Harbin,10009854,53068000000.0,150.0,45.75759887695312,126.6408996582031,http://dbpedia.org/resource/China_men's_national_basketball_team,,,,,China_men's_national_basketball_team,,1149.0,5,0,0
http://dbpedia.org/resource/London,London,9841000,,,51.50722122192383,-0.1274999976158142,http://dbpedia.org/resource/United_Kingdom,,5690.0,,,United_Kingdom,,2113.0,4,0,0
http://dbpedia.org/resource/Cairo,Cairo,9801536,606000000.0,23.0,30.0444450378418,31.2358341217041,http://dbpedia.org/resource/Egypt,,,,,Egypt,,1151.0,5,0,0
"http://dbpedia.org/resource/Nanyang,_Henan","Nanyang, Henan",9713112,26591000000.0,131.0,32.99020004272461,112.5285034179688,http://dbpedia.org/resource/China,,,,,China,,,5,0,0
http://dbpedia.org/resource/Ningbo,Ningbo,9618000,9816230000.0,150.0,29.86899948120117,121.5540008544922,http://dbpedia.org/resource/China,,,,,China,,816.0,5,0,0
http://dbpedia.org/resource/Seoul,Seoul,9602826,605210000.0,38.0,37.56000137329102,126.9899978637695,http://dbpedia.org/resource/South_Korea,,,,,South_Korea,,,5,0,0
http://dbpedia.org/resource/Wenzhou,Wenzhou,9572903,,,27.99379920959473,120.6993026733398,http://dbpedia.org/resource/China,,,,,China,,,3,0,0
http://dbpedia.org/resource/Foshan,Foshan,9498863,3848000000.0,16.0,23.02140045166016,113.1215972900391,http://dbpedia.org/resource/China,,,,,China,,,5,0,0
http://dbpedia.org/resource/Hefei,Hefei,9465881,11434250000.0,37.0,31.82060050964355,117.2273025512695,http://dbpedia.org/resource/China,,,,,China,,755.0,5,0,0
http://dbpedia.org/resource/Handan,Handan,9433000,12068000000.0,,36.60100173950195,114.4869995117188,,,,,,,,,3,0,0
http://dbpedia.org/resource/Weifang,Weifang,9386705,16143140000.0,32.0,36.70800018310547,119.1620025634766,http://dbpedia.org/resource/China,,,,,China,,,5,0,0
http://dbpedia.org/resource/Nanjing,Nanjing,9341685,6587000000.0,15.24,32.06083297729492,118.7788925170898,,,,,,,,,4,0,0
http://dbpedia.org/resource/Mexico_City,Mexico City,9209944,1485000000.0,2240.0,19.4333324432373,-99.13333129882812,http://dbpedia.org/resource/Mexico,,,,,Mexico,,,5,0,0
http://dbpedia.org/resource/Jinan,Jinan,9202432,10247000000.0,23.0,36.67020034790039,117.0206985473633,http://dbpedia.org/resource/China,,,,,China,,,5,0,0
http://dbpedia.org/resource/Xuzhou,Xuzhou,9083790,11259000000.0,,34.26499938964844,117.1869964599609,http://dbpedia.org/resource/China,,,,,China,,670.0,4,0,0
http://dbpedia.org/resource/Shenyang,Shenyang,9070093,12869000000.0,55.0,41.8025016784668,123.4280548095703,http://dbpedia.org/resource/China,,,,,China,,1278.0,5,0,0
http://dbpedia.org/resource/Changchun,Changchun,9066906,24734000000.0,222.504,43.89699935913086,125.3259963989258,http://dbpedia.org/resource/China,,,,,China,,824.0,5,0,0
http://dbpedia.org/resource/Zhoukou,Zhoukou,9026015,11959000000.0,,33.63669967651367,114.7014007568359,,,,,,,,,3,0,0
"http://dbpedia.org/resource/The_Line,_Saudi_Arabia","The Line, Saudi Arabia",9000000,34000000.0,,28.10000038146973,35.29999923706055,http://dbpedia.org/resource/Saudi_Arabia,,,,,Saudi_Arabia,,201.0,4,0,0
http://dbpedia.org/resource/Ganzhou,Ganzhou,8970014,39379640000.0,107.0,25.83099937438965,114.9329986572266,http://dbpedia.org/resource/China,,,,,China,,,5,0,0
http://dbpedia.org/resource/Hanoi,Hanoi,8807523,3359840000.0,,21.0,105.8499984741211,http://dbpedia.org/resource/Vietnam,,,,,Vietnam,,,4,0,0
http://dbpedia.org/resource/New_York_City,New York City,8804190,1223588082.966037,,,,http://dbpedia.org/resource/United_States,,11313.83572112173,,,United_States,,,3,0,0
http://dbpedia.org/resource/Quanzhou,Quanzhou,8782285,11218910000.0,,24.87439918518066,118.6756973266602,http://dbpedia.org/resource/China,,,,,China,,791.0,4,0,0
http://dbpedia.org/resource/Nanning,Nanning,8741584,22189000000.0,,22.81669998168945,108.3274993896484,http://dbpedia.org/resource/China,,,,,China,,,4,0,0
http://dbpedia.org/resource/Tehran,Tehran,8693706,,1039.9776,35.68888854980469,51.38972091674805,http://dbpedia.org/resource/Iran,,14698.0,,,Iran,,,5,0,0
http://dbpedia.org/resource/Kunming,Kunming,8460088,21473000000.0,1892.0,25.04640007019043,102.7093963623047,http://dbpedia.org/resource/China,,,,,China,,,5,0,0
http://dbpedia.org/resource/Bengaluru,Bengaluru,8443675,741000000.0,920.0,12.97888851165771,77.59166717529297,http://dbpedia.org/resource/India,,,,,India,,,5,0,0
http://dbpedia.org/resource/Bangkok,Bangkok,8305218,1568737000.0,1.5,13.7524995803833,100.4941635131836,http://dbpedia.org/resource/Thailand,,,,,Thailand,,,5,0,0
http://dbpedia.org/resource/Fuzhou,Fuzhou,8291268,12231900000.0,,26.07430076599121,119.2964019775391,http://dbpedia.org/resource/China,,,,,China,,,4,0,0
http://dbpedia.org/resource/Heze,Heze,8287693,12256000000.0,,35.23429870605469,115.4795989990234,http://dbpedia.org/resource/China,,,,,China,,,4,0,0
http://dbpedia.org/resource/Fuyang,Fuyang,8200264,9775000000.0,,32.88999938964844,115.8140029907227,,,,,,,,,3,0,0
http://dbpedia.org/resource/Jining,Jining,8081905,11186970000.0,,35.41510009765625,116.5870971679688,,,,,,,,,3,0,0
http://dbpedia.org/resource/Lagos,Lagos,8048430,1171280000.0,41.148,6.455027103424072,3.384082078933716,http://dbpedia.org/resource/Nigeria,,6871.0,,,Nigeria,,1036.0,6,0,0
http://dbpedia.org/resource/Bogotá,Bogotá,8034649,1587000000.0,2640.0,4.711111068725586,-74.07221984863281,http://dbpedia.org/resource/Colombia,,5060.640992015838,,,Colombia,,1253.0,6,0,0
http://dbpedia.org/resource/Shangqiu,Shangqiu,7816831,10658000000.0,50.292,34.41500091552734,115.6559982299805,http://dbpedia.org/resource/China,,,,,China,,546.0,5,0,0
http://dbpedia.org/resource/Dar_es_Salaam,Dar es Salaam,7776000,1599000000.0,,-6.816111087799072,39.28027725219727,http://dbpedia.org/resource/Tanzania,,,,,Tanzania,,,4,0,0
http://dbpedia.org/resource/Nantong,Nantong,7726635,8544100000.0,2.0,31.98100090026855,120.8939971923828,http://dbpedia.org/resource/China,,,,,China,,556.0,5,0,0
http://dbpedia.org/resource/Tangshan,Tangshan,7717983,13472000000.0,,39.62944412231445,118.1738891601562,http://dbpedia.org/resource/China,,,,,China,,,4,0,0
http://dbpedia.org/resource/Wuxi,Wuxi,7495000,4627470000.0,,,,http://dbpedia.org/resource/China,,,,,China,,,2,0,0
http://dbpedia.org/resource/Dalian,Dalian,7450785,13743000000.0,29.0,38.90000152587891,121.5999984741211,http://dbpedia.org/resource/China,,,,,China,,2278.0,5,0,0
http://dbpedia.org/resource/Cangzhou,Cangzhou,7300783,14383460000.0,12.8016,38.3046989440918,116.8386993408203,,,,,,,,515.0,4,0,0
http://dbpedia.org/resource/Xingtai,Xingtai,7111106,12432000000.0,,37.07170104980469,114.5047988891602,http://dbpedia.org/resource/China,,,,,China,,493.0,4,0,0
http://dbpedia.org/resource/Yantai,Yantai,7102100,13739900000.0,,37.53710174560547,121.4477996826172,http://dbpedia.org/resource/China,,,,,China,,706.0,4,0,0
http://dbpedia.org/resource/Luoyang,Luoyang,7056699,15229150000.0,144.0,34.61970138549805,112.4539031982422,http://dbpedia.org/resource/China,,,,,China,,,5,0,0
http://dbpedia.org/resource/Jinhua,Jinhua,7050683,10926160000.0,,29.07900047302246,119.6470031738281,http://dbpedia.org/resource/China,,,,,China,,518.0,4,0,0
http://dbpedia.org/resource/Riyadh,Riyadh,7009100,1973000000.0,612.0,24.63333320617676,46.71666717529297,http://dbpedia.org/resource/Saudi_Arabia,,,,,Saudi_Arabia,,,5,0,0
http://dbpedia.org/resource/Zhumadian,Zhumadian,7008427,15083000000.0,,33.01399993896484,114.0220031738281,,,,,,,,416.0,3,0,0
http://dbpedia.org/resource/Zhanjiang,Zhanjiang,6981236,13225000000.0,21.0,21.27009963989258,110.3574981689453,http://dbpedia.org/resource/China,,,,,China,,,5,0,0
http://dbpedia.org/resource/Surat,Surat,6936534,461600000.0,34.68,21.20499992370605,72.83999633789062,http://dbpedia.org/resource/India,,,,,India,,,5,0,0
http://dbpedia.org/resource/Hyderabad,Hyderabad,6809970,650000000.0,536.0,,,http://dbpedia.org/resource/India,,10477.0,,,India,,,4,0,0
http://dbpedia.org/resource/Chennai,Chennai,6748026,426000000.0,7.0,12.98222255706787,80.16361236572266,,,,,,,,1283.0,4,0,0
http://dbpedia.org/resource/Yancheng,Yancheng,6709629,16920830000.0,,,,http://dbpedia.org/resource/China,,,,,China,,573.0,2,0,0
"http://dbpedia.org/resource/Taizhou,_Zhejiang","Taizhou, Zhejiang",6662888,9411000000.0,,28.65570068359375,121.4207992553711,http://dbpedia.org/resource/China,,,,,China,,,4,0,0
http://dbpedia.org/resource/Hengyang,Hengyang,6645243,15279000000.0,,26.89399909973145,112.5719985961914,http://dbpedia.org/resource/China,,,,,China,,,4,0,0
http://dbpedia.org/resource/Zunyi,Zunyi,6606675,30763000000.0,865.0,27.71339988708496,106.9200973510742,,,,,,,,492.0,4,0,0
http://dbpedia.org/resource/Shaoyang,Shaoyang,6563520,20829630000.0,,27.23950004577637,111.467903137207,,,,,,,,492.0,3,0,0
http://dbpedia.org/resource/Bijie,Bijie,6536370,26853000000.0,1723.0,27.28400039672852,105.2919998168945,,,,,,,,,4,0,0
http://dbpedia.org/resource/Shangrao,Shangrao,6491088,22791000000.0,,28.45509910583496,117.9430999755859,http://dbpedia.org/resource/China,,,,,China,,,4,0,0
http://dbpedia.org/resource/Abidjan,Abidjan,6321017,2119000000.0,18.0,5.316666603088379,-4.033333301544189,http://dbpedia.org/resource/Ivory_Coast,,,,,Ivory_Coast,,,5,0,0
http://dbpedia.org/resource/Santiago,Santiago,6269384,641281056.1191936,569.976,-33.4375,-70.6500015258789,http://dbpedia.org/resource/Chile,,9820.894504685652,,,Chile,,1316.0,6,0,0
http://dbpedia.org/resource/Nanchang,Nanchang,6255007,7194000000.0,37.0,28.6830005645752,115.8580017089844,http://dbpedia.org/resource/China,,,,,China,,,5,0,0
http://dbpedia.org/resource/Xinxiang,Xinxiang,6251929,8629000000.0,,35.3036003112793,113.9268035888672,http://dbpedia.org/resource/China,,,,,China,,516.0,4,0,0
http://dbpedia.org/resource/Xinyang,Xinyang,6234401,18819000000.0,,32.14899826049805,114.0910034179688,http://dbpedia.org/resource/China,,,,,China,,,4,0,0
http://dbpedia.org/resource/Maoming,Maoming,6174050,11424800000.0,29.0,21.66270065307617,110.9254989624023,,,,,,,,473.0,4,0,0
http://dbpedia.org/resource/Qujing,Qujing,6155400,29855000000.0,1873.0,25.49099922180176,103.7959976196289,http://dbpedia.org/resource/China,,,,,China,,417.0,5,0,0
http://dbpedia.org/resource/Miami_metropolitan_area,Miami metropolitan area,6138333,,,26.04999923706055,-80.19999694824219,http://dbpedia.org/resource/United_States,,386.248877362692,,,United_States,,,4,0,0
http://dbpedia.org/resource/Huizhou,Huizhou,6042852,10922000000.0,15.0,23.11199951171875,114.4160003662109,http://dbpedia.org/resource/China,,,,,China,,522.0,5,0,0
http://dbpedia.org/resource/Singapore,Singapore,6040000,,,1.283333301544189,103.8333358764648,,,7804.0,,,,,1324.0,3,0,0
http://dbpedia.org/resource/Downtown_Yangon,Downtown Yangon,6000000,8538000.0,,16.77709770202637,96.1611099243164,http://dbpedia.org/resource/Myanmar,,,,,Myanmar,,,4,0,0
http://dbpedia.org/resource/Guiyang,Guiyang,5987018,8034000000.0,1275.0,26.64699935913086,106.629997253418,http://dbpedia.org/resource/China,,,,,China,,,5,0,0
http://dbpedia.org/resource/Liaocheng,Liaocheng,5952128,8721000000.0,,36.45589828491211,115.9851989746094,,,,,,,,419.0,3,0,0
http://dbpedia.org/resource/Huanggang,Huanggang,5882719,17446630000.0,,30.45369911193848,114.8723983764648,,,,,,,,474.0,3,0,0
http://dbpedia.org/resource/Jieyang,Jieyang,5877025,5240500000.0,8.0,23.55100059509277,116.3727035522461,http://dbpedia.org/resource/China,,,,,China,,422.0,5,0,0
http://dbpedia.org/resource/Ankara,Ankara,5864049,,938.0,39.93000030517578,32.84999847412109,http://dbpedia.org/resource/Turkey,,,,,Turkey,,1340.0,4,0,0
"http://dbpedia.org/resource/Yulin,_Guangxi","Yulin, Guangxi",5796766,12828000000.0,,22.65399932861328,110.1809997558594,http://dbpedia.org/resource/China,,,,,China,,393.0,4,0,0
http://dbpedia.org/resource/Dezhou,Dezhou,5748500,10361000000.0,,37.43600082397461,116.359001159668,http://dbpedia.org/resource/China,,,,,China,,,4,0,0
http://dbpedia.org/resource/Tai'an,Tai'an,5635000,7762000000.0,167.0,36.20199966430664,117.0869979858398,http://dbpedia.org/resource/China,,,,,China,,,5,0,0
http://dbpedia.org/resource/Nanchong,Nanchong,5607565,12479960000.0,340.0,30.79129981994629,106.1106033325195,,,,,,,,466.0,4,0,0
http://dbpedia.org/resource/Saint_Petersburg,Saint Petersburg,5601911,1439000000.0,3.0,59.9375,30.3086109161377,http://dbpedia.org/resource/Russia,,3992.81,,,Russia,,1538.0,6,0,0
http://dbpedia.org/resource/Ahmedabad,Ahmedabad,5577940,505000000.0,69.65,23.02249908447266,72.5713882446289,http://dbpedia.org/resource/India,,,,,India,,960.0,5,0,0
http://dbpedia.org/resource/Sydney,Sydney,5557233,,,-33.86666488647461,151.1999969482422,http://dbpedia.org/resource/Australia,,,,,Australia,,1376.0,3,0,0
http://dbpedia.org/resource/Weinan,Weinan,5520772,,,34.52059936523438,109.4710006713867,http://dbpedia.org/resource/China,,,,,China,,496.0,3,0,0
http://dbpedia.org/resource/Shantou,Shantou,5502031,2248390000.0,51.0,23.35400009155273,116.681999206543,http://dbpedia.org/resource/China,,,,,China,,689.0,5,0,0
http://dbpedia.org/resource/Anyang,Anyang,5477614,7355000000.0,69.0,36.0989990234375,114.3919982910156,,,,,,,,,4,0,0
http://dbpedia.org/resource/Langfang,Langfang,5464087,6417280000.0,,39.53829956054688,116.6835021972656,http://dbpedia.org/resource/China,,,,,China,,,4,0,0
http://dbpedia.org/resource/Jiaxing,Jiaxing,5400868,4008760000.0,,30.74699974060059,120.7559967041016,http://dbpedia.org/resource/China,,,,,China,,,4,0,0
http://dbpedia.org/resource/Dazhou,Dazhou,5385422,16591000000.0,,31.20929908752441,107.4677963256836,http://dbpedia.org/resource/China,,,,,China,,,4,0,0
http://dbpedia.org/resource/Melbourne,Melbourne,5350705,,,-37.81416702270508,144.9630584716797,http://dbpedia.org/resource/Australia,,,,,Australia,,,3,0,0
"http://dbpedia.org/resource/Suzhou,_Anhui","Suzhou, Anhui",5324476,9939800000.0,,33.64799880981445,116.963996887207,,,,,,,,,3,0,0
http://dbpedia.org/resource/Taiyuan,Taiyuan,5305061,6959000000.0,800.0,37.87039947509766,112.5496978759766,http://dbpedia.org/resource/China,,,,,China,,,5,0,0
http://dbpedia.org/resource/Yongzhou,Yongzhou,5289824,22255310000.0,,26.42000007629395,111.6129989624023,,,,,,,,,3,0,0
http://dbpedia.org/resource/Changde,Changde,5279102,18177000000.0,35.0,29.0310001373291,111.6989974975586,,,,,,,,579.0,4,0,0
http://dbpedia.org/resource/Changzhou,Changzhou,5278121,4384580000.0,,31.81100082397461,119.9739990234375,http://dbpedia.org/resource/China,,,,,China,,634.0,4,0,0
http://dbpedia.org/resource/Shaoxing,Shaoxing,5270977,8279100000.0,,30.05109977722168,120.5832977294922,http://dbpedia.org/resource/China,,,,,China,,552.0,4,0,0
http://dbpedia.org/resource/Xiangyang,Xiangyang,5260951,19724410000.0,70.7136,32.0099983215332,112.1220016479492,http://dbpedia.org/resource/China,,,,,China,,,5,0,0
http://dbpedia.org/resource/Huaihua,Huaihua,5235200,27600000000.0,,27.56979942321777,109.9856033325195,,,,,,,,421.0,3,0,0
http://dbpedia.org/resource/Jingzhou,Jingzhou,5231180,14068680000.0,,30.33629989624023,112.2414016723633,http://dbpedia.org/resource/China,,,,,China,,,4,0,0
http://dbpedia.org/resource/Zhaotong,Zhaotong,5213533,23192000000.0,1926.0,27.33799934387207,103.7170028686523,http://dbpedia.org/resource/China,,,,,China,,,5,0,0
http://dbpedia.org/resource/Xiamen,Xiamen,5163970,1700610000.0,,24.47960090637207,118.0888977050781,http://dbpedia.org/resource/China,,,,,China,,,4,0,0
http://dbpedia.org/resource/Xianyang,Xianyang,5096001,10213000000.0,,34.32989883422852,108.7088012695312,,,,,,,,,3,0,0
http://dbpedia.org/resource/Zhangzhou,Zhangzhou,5054328,12882270000.0,,24.51300048828125,117.6470031738281,,,,,,,,,3,0,0
http://dbpedia.org/resource/Yueyang,Yueyang,5051922,14896000000.0,,29.35639953613281,113.1288986206055,http://dbpedia.org/resource/China,,,,,China,,,4,0,0
http://dbpedia.org/resource/Bozhou,Bozhou,4996844,8522580000.0,32.0,33.84629821777344,115.7786026000977,,,,,,,,,4,0,0
http://dbpedia.org/resource/Pingdingshan,Pingdingshan,4987137,7874000000.0,,33.7666015625,113.2963027954102,http://dbpedia.org/resource/China,,,,,China,,511.0,4,0,0
http://dbpedia.org/resource/Suqian,Suqian,4986192,8555000000.0,,33.9630012512207,118.2750015258789,http://dbpedia.org/resource/China,,,,,China,,,4,0,0
http://dbpedia.org/resource/Kabul,Kabul,4950000,383100000.0,1791.0,34.52527618408203,69.17833709716797,http://dbpedia.org/resource/Afghanistan,,12920.0,,,Afghanistan,,1209.0,6,0,0
http://dbpedia.org/resource/Guilin,Guilin,4931137,27797000000.0,153.0,25.27499961853027,110.2959976196289,http://dbpedia.org/resource/China,,,,,China,,691.0,5,0,0
http://dbpedia.org/resource/Mianyang,Mianyang,4868243,20267460000.0,473.0,31.4680004119873,104.6790008544922,http://dbpedia.org/resource/China,,,,,China,,,5,0,0
http://dbpedia.org/resource/Yaoundé,Yaoundé,4854000,180000000.0,726.0,3.866666555404663,11.51666641235352,http://dbpedia.org/resource/Cameroon,,,,,Cameroon,,,5,0,0
http://dbpedia.org/resource/Kaifeng,Kaifeng,4824016,6247000000.0,74.676,34.79499816894531,114.3450012207031,http://dbpedia.org/resource/China,,,,,China,,,5,0,0
http://dbpedia.org/resource/Johannesburg,Johannesburg,4803262,334810000.0,1753.0,-26.20444488525391,28.04555511474609,http://dbpedia.org/resource/South_Africa,,,,,South_Africa,,861.0,5,0,0
http://dbpedia.org/resource/Jiangmen,Jiangmen,4798090,9535000000.0,10.0,22.57889938354492,113.0814971923828,,,,,,,,,4,0,0
http://dbpedia.org/resource/Yuncheng,Yuncheng,4774508,14183000000.0,370.0,35.02669906616211,111.0070037841797,http://dbpedia.org/resource/China,,,,,China,,,5,0,0
http://dbpedia.org/resource/Zibo,Zibo,4704138,5965000000.0,,36.81380081176758,118.0550003051758,,,,,,,,553.0,3,0,0
http://dbpedia.org/resource/Haiphong,Haiphong,4664124,3194720000.0,,20.86513900756836,106.6838302612305,http://dbpedia.org/resource/Vietnam,,1459.0,,,Vietnam,,,5,0,0
http://dbpedia.org/resource/Lianyungang,Lianyungang,4599360,7154000000.0,,34.59659957885742,119.2213973999023,,,,,,,,499.0,3,0,0
http://dbpedia.org/resource/Yibin,Yibin,4588804,13293890000.0,321.0,28.75200080871582,104.6429977416992,,,,,,,,,4,0,0
http://dbpedia.org/resource/Chenzhou,Chenzhou,4581778,19317000000.0,,25.77000045776367,113.015998840332,http://dbpedia.org/resource/China,,,,,China,,,4,0,0
http://dbpedia.org/resource/Kanpur,Kanpur,4581268,403000000.0,126.0,26.44992256164551,80.33187103271484,http://dbpedia.org/resource/India,,9800.0,,,India,,,6,0,0
http://dbpedia.org/resource/Yangzhou,Yangzhou,4559797,6626000000.0,,32.39440155029297,119.4128036499023,http://dbpedia.org/resource/China,,,,,China,,,4,0,0
http://dbpedia.org/resource/Huai'an,Huai'an,4556230,9950000000.0,,33.55099868774414,119.1129989624023,http://dbpedia.org/resource/China,,,,,China,,525.0,4,0,0
http://dbpedia.org/resource/Jiujiang,Jiujiang,4546900,18823000000.0,20.0,29.6609992980957,115.9540023803711,http://dbpedia.org/resource/China,,,,,China,,599.0,5,0,0
"http://dbpedia.org/resource/Taizhou,_Jiangsu","Taizhou, Jiangsu",4512762,5787254000.0,5.0,32.45669937133789,119.9228973388672,http://dbpedia.org/resource/China,,,,,China,,518.0,5,0,0
http://dbpedia.org/resource/Ji'an,Ji'an,4469176,25283000000.0,62.0,27.09124374389648,114.9668121337891,,,,,,,,440.0,4,0,0
http://dbpedia.org/resource/Giza,Giza,4458135,98400000.0,30.0,29.98699951171875,31.21179962158203,http://dbpedia.org/resource/Egypt,,,,,Egypt,,,5,0,0
http://dbpedia.org/resource/Zhongshan,Zhongshan,4418060,1783670000.0,11.0,22.51700019836426,113.3925018310547,http://dbpedia.org/resource/China,,,,,China,,,5,0,0
http://dbpedia.org/resource/Nairobi,Nairobi,4397073,696100000.0,1794.9672,-1.286388874053955,36.81722259521484,http://dbpedia.org/resource/Kenya,,,,,Kenya,,,5,0,0
http://dbpedia.org/resource/Lu'an,Lu'an,4393699,15436000000.0,,31.73600006103516,116.5199966430664,,,,,,,,406.0,3,0,0
http://dbpedia.org/resource/Xuchang,Xuchang,4379998,4978360000.0,71.0,34.0369987487793,113.8519973754883,http://dbpedia.org/resource/China,,,,,China,,456.0,5,0,0
http://dbpedia.org/resource/Lanzhou,Lanzhou,4359446,13086900000.0,,36.06060028076172,103.8267974853516,http://dbpedia.org/resource/China,,,,,China,,,4,0,0
http://dbpedia.org/resource/Douala,Douala,4346000,923000000.0,13.0,4.050000190734863,9.68333339691162,http://dbpedia.org/resource/Cameroon,,,,,Cameroon,,,5,0,0
http://dbpedia.org/resource/Algiers,Algiers,4325000,,,36.73249816894531,3.087222337722778,http://dbpedia.org/resource/Algeria,,,,,Algeria,,,3,0,0
http://dbpedia.org/resource/Guigang,Guigang,4316262,10601000000.0,44.8056,23.11199951171875,109.5989990234375,http://dbpedia.org/resource/China,,,,,China,,,5,0,0
http://dbpedia.org/resource/Yiyang,Yiyang,4313084,12144000000.0,,28.55489921569824,112.3560028076172,,,,,,,,,3,0,0
http://dbpedia.org/resource/Xiaogan,Xiaogan,4270371,8922720000.0,,30.91799926757812,113.9570007324219,,,,,,,,,3,0,0
http://dbpedia.org/resource/Kampala,Kampala,4265160,189000000.0,1200.0,0.3136111199855804,32.58111190795898,http://dbpedia.org/resource/Uganda,,22500.0,,,Uganda,,,6,0,0
http://dbpedia.org/resource/Luzhou,Luzhou,4254149,12233580000.0,262.0,28.87100028991699,105.4420013427734,,,,,,,,,4,0,0
http://dbpedia.org/resource/Bamako,Bamako,4227569,245000000.0,350.0,12.63916683197021,-8.002778053283691,http://dbpedia.org/resource/Mali,,16776.0,,,Mali,,687.0,6,0,0
http://dbpedia.org/resource/Baise,Baise,4226800,36252000000.0,137.0,23.90299987792969,106.6190032958984,,,,,,,,424.0,4,0,0
http://dbpedia.org/resource/Hengshui,Hengshui,4212933,8836950000.0,,37.73899841308594,115.6689987182617,,,,,,,,410.0,3,0,0
http://dbpedia.org/resource/Cần_Thơ,Cần Thơ,4199824,6360830000.0,,10.03333377838135,105.783332824707,http://dbpedia.org/resource/Vietnam,,660.0,,,Vietnam,,509.0,5,0,0
http://dbpedia.org/resource/Anqing,Anqing,4165284,13486600000.0,,30.53179931640625,117.1153030395508,http://dbpedia.org/resource/China,,,,,China,,,4,0,0
http://dbpedia.org/resource/Liuzhou,Liuzhou,4153500,18594200000.0,,24.32777786254883,109.4277801513672,http://dbpedia.org/resource/China,,,,,China,,,4,0,0
http://dbpedia.org/resource/Zhangjiakou,Zhangjiakou,4118908,36861560000.0,716.0,40.76900100708008,114.8860015869141,http://dbpedia.org/resource/China,,,,,China,,,5,0,0
http://dbpedia.org/resource/Zhaoqing,Zhaoqing,4113594,14891230000.0,12.0,,,,,,,,,,,2,0,0
http://dbpedia.org/resource/Qiqihar,Qiqihar,4067489,42205820000.0,147.0,47.35490036010742,123.9181976318359,http://dbpedia.org/resource/China,,,,,China,,618.0,5,0,0
http://dbpedia.org/resource/Amman,Amman,4061150,1680000000.0,,31.94972229003906,35.93277740478516,http://dbpedia.org/resource/Jordan,,2380.0,,,Jordan,,1067.0,5,0,0
http://dbpedia.org/resource/Ürümqi,Ürümqi,4054000,14577000000.0,860.0,43.8224983215332,87.61250305175781,,,,,,,,,4,0,0
http://dbpedia.org/resource/Chifeng,Chifeng,4035967,90275000000.0,586.0,,,http://dbpedia.org/resource/China,,,,,China,,506.0,3,0,0
http://dbpedia.org/resource/Yichang,Yichang,4017607,21338000000.0,58.2168,30.6919994354248,111.2870025634766,http://dbpedia.org/resource/China,,,,,China,,,5,0,0
http://dbpedia.org/resource/Lucknow,Lucknow,4000000,631000000.0,123.0,26.85000038146973,80.94999694824219,http://dbpedia.org/resource/India,,,,,India,,1091.0,5,0,0
http://dbpedia.org/resource/Hechi,Hechi,3991900,33500000000.0,195.0,24.69300079345703,108.0849990844727,,,,,,,,413.0,4,0,0
http://dbpedia.org/resource/Linfen,Linfen,3976481,20275000000.0,452.0,36.0880012512207,111.5189971923828,http://dbpedia.org/resource/China,,,,,China,,567.0,5,0,0
http://dbpedia.org/resource/Qingyuan,Qingyuan,3969473,19152900000.0,13.716,23.68199920654297,113.0559997558594,http://dbpedia.org/resource/China,,,,,China,,,5,0,0
http://dbpedia.org/resource/Dubai,Dubai,3944751,544000000.0,,25.20472145080566,55.27083206176758,http://dbpedia.org/resource/United_Arab_Emirates,,,,,United_Arab_Emirates,,1142.0,4,0,0
http://dbpedia.org/resource/Chuzhou,Chuzhou,3937868,13523210000.0,,32.25600051879883,118.3330001831055,http://dbpedia.org/resource/China,,,,,China,,433.0,4,0,0
http://dbpedia.org/resource/Binzhou,Binzhou,3928568,9453000000.0,20.0,37.38299942016602,117.9710006713867,http://dbpedia.org/resource/China,,,,,China,,467.0,5,0,0
http://dbpedia.org/resource/Los_Angeles,Los Angeles,3898747,1290591075.380429,71.0,34.04999923706055,-118.25,http://dbpedia.org/resource/United_States_women's_national_soccer_team,,3167.968210840769,,,United_States_women's_national_soccer_team,,,6,0,0
http://dbpedia.org/resource/Meizhou,Meizhou,3873239,15864510000.0,96.0,24.28899955749512,116.1220016479492,http://dbpedia.org/resource/China,,,,,China,,,5,0,0
http://dbpedia.org/resource/Zhuzhou,Zhuzhou,3855609,11262000000.0,,27.82900047302246,113.1330032348633,http://dbpedia.org/resource/China,,,,,China,,452.0,4,0,0
http://dbpedia.org/resource/Zaozhuang,Zaozhuang,3855601,4563220000.0,,34.8109016418457,117.3237991333008,http://dbpedia.org/resource/China,,,,,China,,,4,0,0
http://dbpedia.org/resource/Loudi,Loudi,3785627,8117000000.0,,27.69980049133301,111.9944000244141,,,,,,,,,3,0,0
http://dbpedia.org/resource/Puyang,Puyang,3772088,4188000000.0,,35.76269912719727,115.0291976928711,,,,,,,,428.0,3,0,0
http://dbpedia.org/resource/Yokohama,Yokohama,3769595,437380000.0,,35.44416809082031,139.6380615234375,http://dbpedia.org/resource/Japan,,8606.0,,,Japan,,916.0,5,0,0
http://dbpedia.org/resource/Suihua,Suihua,3756167,34964170000.0,,46.65399932861328,126.9690017700195,http://dbpedia.org/resource/China,,,,,China,,,4,0,0
http://dbpedia.org/resource/Jeddah,Jeddah,3751722,1600000000.0,12.0,21.54333305358887,39.17277908325195,http://dbpedia.org/resource/Saudi_Arabia,,,,,Saudi_Arabia,,,5,0,0
http://dbpedia.org/resource/Faisalabad,Faisalabad,3691999,1326073912.492032,186.0,31.41666603088379,73.09111022949219,http://dbpedia.org/resource/Pakistan,,,,,Pakistan,,764.0,5,0,0
http://dbpedia.org/resource/Wuhu,Wuhu,3644420,6010900000.0,7.9248,31.35260009765625,118.4330978393555,http://dbpedia.org/resource/China,,,,,China,,554.0,5,0,0
"http://dbpedia.org/resource/Rajpur,_Baroda","Rajpur, Baroda",3641566,148950000.0,129.0,22.29999923706055,73.20027923583984,http://dbpedia.org/resource/India,,11021.0,,,India,,,6,0,0
"http://dbpedia.org/resource/Yulin,_Shaanxi","Yulin, Shaanxi",3634750,43578000000.0,1084.0,38.28580093383789,109.7341003417969,,,,,,,,415.0,4,0,0
http://dbpedia.org/resource/Jilin_City,Jilin City,3623713,27166370000.0,202.0,43.83810043334961,126.5496978759766,,,,,,,,571.0,4,0,0
"http://dbpedia.org/resource/Fuzhou,_Jiangxi","Fuzhou, Jiangxi",3614866,,44.8056,27.94899940490723,116.3580017089844,http://dbpedia.org/resource/China,,,,,China,,,4,0,0
http://dbpedia.org/resource/Berlin,Berlin,3596999,891300000.0,34.0,52.52000045776367,13.40499973297119,http://dbpedia.org/resource/Germany,,4109.0,,,Germany,,,6,0,0
http://dbpedia.org/resource/Jiaozuo,Jiaozuo,3590700,4000900000.0,139.0,35.2156982421875,113.2418975830078,,,,,,,,,4,0,0
http://dbpedia.org/resource/Chengde,Chengde,3473200,39519000000.0,327.0,40.95299911499023,117.9629974365234,http://dbpedia.org/resource/China,,91.0,,,China,,533.0,6,0,0
http://dbpedia.org/resource/Deyang,Deyang,3456161,5818000000.0,,31.12700080871582,104.3980026245117,http://dbpedia.org/resource/China,,,,,China,,,4,0,0
http://dbpedia.org/resource/Hohhot,Hohhot,3446100,17186100000.0,1065.0,40.84199905395508,111.7490005493164,http://dbpedia.org/resource/China,,,,,China,,774.0,5,0,0
http://dbpedia.org/resource/Lüliang,Lüliang,3398431,21143000000.0,952.0,37.51900100708008,111.1445007324219,http://dbpedia.org/resource/China,,,,,China,,,5,0,0
http://dbpedia.org/resource/Jinzhong,Jinzhong,3379498,16408000000.0,,37.6879997253418,112.7526016235352,http://dbpedia.org/resource/China,,,,,China,,,4,0,0
http://dbpedia.org/resource/Huzhou,Huzhou,3367579,5818430000.0,,30.89249992370605,120.0875015258789,http://dbpedia.org/resource/China,,,,,China,,500.0,4,0,0
http://dbpedia.org/resource/Rawalpindi,Rawalpindi,3357612,479000000.0,508.0,33.59999847412109,73.03333282470703,http://dbpedia.org/resource/Pakistan,,,,,Pakistan,,,5,0,0
http://dbpedia.org/resource/Busan,Busan,3343903,770040000.0,,35.18000030517578,129.0749969482422,,,,,,,,861.0,3,0,0
http://dbpedia.org/resource/Anshan,Anshan,3325372,9270000000.0,,41.10800170898438,122.9940032958984,http://dbpedia.org/resource/China,,,,,China,,618.0,4,0,0
http://dbpedia.org/resource/Madrid,Madrid,3322416,604310000.0,650.0,40.41694259643555,-3.703333377838135,http://dbpedia.org/resource/Spain,,,,,Spain,,,5,0,0
http://dbpedia.org/resource/Baoji,Baoji,3321853,18159000000.0,570.0,34.36299896240234,107.2379989624023,,,,,,,,,4,0,0
http://dbpedia.org/resource/East_Jakarta,East Jakarta,3315114,188030000.0,,-6.245277881622314,106.9005584716797,http://dbpedia.org/resource/Indonesia,,,,,Indonesia,,174.0,4,0,0
http://dbpedia.org/resource/Qinzhou,Qinzhou,3302238,10820850000.0,12.0,21.98100090026855,108.6539993286133,,,,,,,,,4,0,0
http://dbpedia.org/resource/Tongren,Tongren,3298468,18014000000.0,,27.73159980773926,109.1894989013672,,,,,,,,,3,0,0
http://dbpedia.org/resource/Bengbu,Bengbu,3296408,5952140000.0,,32.91699981689453,117.3889999389648,http://dbpedia.org/resource/China,,,,,China,,464.0,4,0,0
http://dbpedia.org/resource/Guang'an,Guang'an,3254883,6339000000.0,,30.45639991760254,106.6325988769531,,,,,,,,363.0,3,0,0
http://dbpedia.org/resource/Caracas,Caracas,3242000,433000000.0,900.0,10.48055553436279,-66.90361022949219,http://dbpedia.org/resource/Venezuela,,7059.877968948624,,,Venezuela,,763.0,6,0,0
http://dbpedia.org/resource/Chittagong,Chittagong,3230507,168070000.0,29.0,22.33499908447266,91.8324966430664,,,,,,,,893.0,4,0,0
http://dbpedia.org/resource/Casablanca,Casablanca,3218036,383318240.329728,0.0,33.53333282470703,-7.583333492279053,http://dbpedia.org/resource/Morocco,,8764.518998913522,,,Morocco,,1062.0,6,0,0
http://dbpedia.org/resource/Hanzhong,Hanzhong,3211462,27246000000.0,511.0,33.06639862060547,107.0232009887695,http://dbpedia.org/resource/China,,,,,China,,,5,0,0
http://dbpedia.org/resource/Putian,Putian,3210714,4119000000.0,,25.45260047912598,119.0077972412109,http://dbpedia.org/resource/China,,,,,China,,,4,0,0
http://dbpedia.org/resource/Zhenjiang,Zhenjiang,3210418,3837259000.0,,32.1879997253418,119.4240036010742,http://dbpedia.org/resource/China,,,,,China,,,4,0,0
http://dbpedia.org/resource/Shiyan,Shiyan,3209004,23680000000.0,,32.62900161743164,110.798698425293,,,,,,,,,3,0,0
http://dbpedia.org/resource/Changzhi,Changzhi,3180884,13976000000.0,,36.19499969482422,113.1169967651367,,,,,,,,,3,0,0
http://dbpedia.org/resource/Leshan,Leshan,3160168,12827490000.0,,29.55200004577637,103.765998840332,http://dbpedia.org/resource/China,,,,,China,,475.0,4,0,0
http://dbpedia.org/resource/Pyongyang,Pyongyang,3157538,829100000.0,,39.01666641235352,125.7474975585938,http://dbpedia.org/resource/North_Korea,,,,,North_Korea,,885.0,4,0,0
http://dbpedia.org/resource/Neijiang,Neijiang,3140678,5385330000.0,,29.5802001953125,105.0579986572266,,,,,,,,373.0,3,0,0
http://dbpedia.org/resource/Qinhuangdao,Qinhuangdao,3136879,7791570000.0,,39.94060134887695,119.595100402832,http://dbpedia.org/resource/China,,,,,China,,519.0,4,0,0
http://dbpedia.org/resource/Buenos_Aires,Buenos Aires,3121707,205900000.0,24.9936,-34.60388946533203,-58.38138961791992,http://dbpedia.org/resource/Argentina,,3121707.0,,,Argentina,,,6,0,0
http://dbpedia.org/resource/Datong,Datong,3105591,14068000000.0,1042.0,40.09700012207031,113.3669967651367,http://dbpedia.org/resource/China,,,,,China,,,5,0,0
http://dbpedia.org/resource/Vadodara,Vadodara,3100260,420330000.0,35.5,22.29999923706055,73.19999694824219,http://dbpedia.org/resource/India,,,,,India,,560.0,5,0,0
http://dbpedia.org/resource/Tashkent,Tashkent,3095498,631283702.0132966,455.0,41.31111145019531,69.27972412109375,http://dbpedia.org/resource/Uzbekistan,,4816.0,,,Uzbekistan,,,6,0,0
http://dbpedia.org/resource/Xinzhou,Xinzhou,3067501,25180000000.0,,38.41600036621094,112.734001159668,http://dbpedia.org/resource/China,,,,,China,,,4,0,0
http://dbpedia.org/resource/Da_Nang,Da Nang,3065628,11859590000.0,,16.06944465637207,108.2097244262695,http://dbpedia.org/resource/Vietnam,,258.0,,,Vietnam,,,5,0,0
http://dbpedia.org/resource/Jaipur,Jaipur,3046163,467000000.0,431.0,26.91500091552734,75.81999969482422,http://dbpedia.org/resource/India,,,,,India,,,5,0,0
"http://dbpedia.org/resource/Chaoyang,_Liaoning","Chaoyang, Liaoning",3044641,19698000000.0,170.0,41.57099914550781,120.4530029296875,http://dbpedia.org/resource/China,,,,,China,,486.0,5,0,0
http://dbpedia.org/resource/Incheon,Incheon,3039450,1062620321.908654,,37.48333358764648,126.6333312988281,http://dbpedia.org/resource/South_Korea,,,,,South_Korea,,1142.0,4,0,0
http://dbpedia.org/resource/Huainan,Huainan,3033528,5530000000.0,,32.63140106201172,117.019401550293,http://dbpedia.org/resource/China,,,,,China,,472.0,4,0,0
http://dbpedia.org/resource/Jingmen,Jingmen,3023000,12404000000.0,,31.035400390625,112.1989974975586,,,,,,,,,3,0,0
http://dbpedia.org/resource/Surabaya,Surabaya,3018022,335930000.0,5.0,-7.245833396911621,112.7377777099609,http://dbpedia.org/resource/Indonesia,,8583.47,,,Indonesia,,,6,0,0
http://dbpedia.org/resource/Haikou,Haikou,3001600,2237000000.0,,20.01860046386719,110.3488006591797,http://dbpedia.org/resource/China,,,,,China,,,4,0,0
http://dbpedia.org/resource/Tianshui,Tianshui,2984659,14280000000.0,1171.0,34.58150100708008,105.7248001098633,,,,,,,,,4,0,0
http://dbpedia.org/resource/Brasília,Brasília,2982818,5801998125.202735,1172.0,-15.79388904571533,-47.88277816772461,http://dbpedia.org/resource/Brazil,,489.06,,,Brazil,,929.0,6,0,0
http://dbpedia.org/resource/Rizhao,Rizhao,2968365,5359000000.0,,35.41699981689453,119.5270004272461,http://dbpedia.org/resource/China,,,,,China,,,4,0,0
http://dbpedia.org/resource/Meishan,Meishan,2955219,7173820000.0,,30.07710075378418,103.8483963012695,,,,,,,,368.0,3,0,0
http://dbpedia.org/resource/Kyiv,Kyiv,2952301,839000000.0,178.9176,50.40000152587891,30.54000091552734,http://dbpedia.org/resource/Ukraine,,3297.312433952488,,,Ukraine,,1383.0,6,0,0
http://dbpedia.org/resource/Shanwei,Shanwei,2935469,4861790000.0,8.0,22.78720092773438,115.375602722168,http://dbpedia.org/resource/China,,,,,China,,,5,0,0
http://dbpedia.org/resource/Weihai,Weihai,2906548,5956000000.0,44.196,37.51330184936523,122.1204986572266,http://dbpedia.org/resource/China,,,,,China,,,5,0,0
http://dbpedia.org/resource/Songyuan,Songyuan,2881082,22034000000.0,133.0,45.14189910888672,124.8253021240234,http://dbpedia.org/resource/China,,,,,China,,393.0,5,0,0
http://dbpedia.org/resource/Tongliao,Tongliao,2873168,58862000000.0,179.0,43.65399932861328,122.2429962158203,http://dbpedia.org/resource/China,,,,,China,,449.0,5,0,0
http://dbpedia.org/resource/Yinchuan,Yinchuan,2859074,6945900000.0,1099.7184,38.48500061035156,106.2249984741211,http://dbpedia.org/resource/China,,,,,China,,,5,0,0
http://dbpedia.org/resource/Shaoguan,Shaoguan,2855131,18645000000.0,59.0,24.81100082397461,113.5970001220703,http://dbpedia.org/resource/China,,,,,China,,506.0,5,0,0
http://dbpedia.org/resource/Taichung,Taichung,2850285,2214900000.0,,24.14388847351074,120.679443359375,,,,,,,,,3,0,0
http://dbpedia.org/resource/Heyuan,Heyuan,2837686,15653630000.0,39.0,23.74430084228516,114.7002029418945,http://dbpedia.org/resource/China,,,,,China,,,5,0,0
http://dbpedia.org/resource/Luanda,Luanda,2831280,116000000.0,6.0,-8.838333129882812,13.2344446182251,http://dbpedia.org/resource/Angola,,,,,Angola,,686.0,5,0,0
http://dbpedia.org/resource/Liupanshui,Liupanshui,2830000,9926000000.0,,26.59250068664551,104.8303985595703,,,,,,,,,3,0,0
http://dbpedia.org/resource/Kano_(city),Kano (city),2828861,499000000.0,488.0,12.0,8.516666412353516,http://dbpedia.org/resource/Nigeria,,,,,Nigeria,,654.0,5,0,0
http://dbpedia.org/resource/Ningde,Ningde,2821996,13452000000.0,,26.66620063781738,119.5476989746094,,,,,,,,,3,0,0
http://dbpedia.org/resource/Wuzhou,Wuzhou,2820977,12588000000.0,,23.47669982910156,111.2789993286133,,,,,,,,,3,0,0
http://dbpedia.org/resource/Pretoria,Pretoria,2818100,687540000.0,1339.0,-25.7461109161377,28.18805503845215,http://dbpedia.org/resource/South_Africa,,,,,South_Africa,,,5,0,0
http://dbpedia.org/resource/Suining,Suining,2814196,5326000000.0,,30.53300094604492,105.5930023193359,http://dbpedia.org/resource/China,,,,,China,,419.0,4,0,0
http://dbpedia.org/resource/Toronto,Toronto,2794356,631100000.0,,43.65250015258789,-79.38166809082031,http://dbpedia.org/resource/Canada,,4427.8,,,Canada,,,5,0,0
http://dbpedia.org/resource/Daqing,Daqing,2781562,22161000000.0,149.0,46.5890007019043,125.1039962768555,http://dbpedia.org/resource/China,,,,,China,,,5,0,0
http://dbpedia.org/resource/Brisbane,Brisbane,2780063,,,-27.46777725219727,153.0280609130859,http://dbpedia.org/resource/Australia,,,,,Australia,,,3,0,0
http://dbpedia.org/resource/Baotou,Baotou,2761700,27768000000.0,1065.0,40.62129974365234,109.9532012939453,http://dbpedia.org/resource/China,,,,,China,,,5,0,0
http://dbpedia.org/resource/Osaka,Osaka,2753862,225210000.0,,34.69388961791992,135.5022277832031,http://dbpedia.org/resource/Japan,,12214.0,,,Japan,,,5,0,0
http://dbpedia.org/resource/Xiangtan,Xiangtan,2752171,5006000000.0,,27.83130073547363,112.9453964233398,http://dbpedia.org/resource/China,,,,,China,,,4,0,0
http://dbpedia.org/resource/Rome,Rome,2746984,1287360000.0,21.0,41.89333343505859,12.48277759552002,http://dbpedia.org/resource/Italy,,,,,Italy,,1781.0,5,0,0
http://dbpedia.org/resource/Chicago,Chicago,2746388,607429911.5171021,182.020464,41.88194274902344,-87.62777709960938,http://dbpedia.org/resource/United_States,,4656.330255676531,,,United_States,,,6,0,0
http://dbpedia.org/resource/Longyan,Longyan,2723627,19069000000.0,,25.07600021362305,117.0169982910156,http://dbpedia.org/resource/China,,,,,China,,470.0,4,0,0
http://dbpedia.org/resource/Antalya,Antalya,2722103,20591000000.0,30.0,36.88740158081055,30.70750045776367,http://dbpedia.org/resource/Turkey,,,,,Turkey,,,5,0,0
http://dbpedia.org/resource/Bazhong,Bazhong,2712894,12301000000.0,392.0,31.86800003051758,106.7480010986328,http://dbpedia.org/resource/China,,,,,China,,396.0,5,0,0
http://dbpedia.org/resource/Jinzhou,Jinzhou,2703853,9988600000.0,23.7744,41.12900161743164,121.1480026245117,http://dbpedia.org/resource/China,,,,,China,,,5,0,0
http://dbpedia.org/resource/Nanping,Nanping,2680645,26278000000.0,89.0,26.64179992675781,118.1773986816406,http://dbpedia.org/resource/China,,,,,China,,,5,0,0
http://dbpedia.org/resource/Gazipur,Gazipur,2678000,,7.9248,23.98888969421387,90.375,http://dbpedia.org/resource/Bangladesh,,8134.0,,,Bangladesh,,,5,0,0
http://dbpedia.org/resource/Xianning,Xianning,2658316,9750000000.0,,29.84140014648438,114.3226013183594,,,,,,,,431.0,3,0,0
http://dbpedia.org/resource/Guayaquil,Guayaquil,2650288,344494318.5557914,4.0,-2.190000057220459,-79.88749694824219,http://dbpedia.org/resource/Ecuador,,,,,Ecuador,,635.0,5,0,0
http://dbpedia.org/resource/Bekasi,Bekasi,2644058,213120000.0,10.9728,-6.234899997711182,106.992301940918,http://dbpedia.org/resource/Indonesia,,,,,Indonesia,,,5,0,0
http://dbpedia.org/resource/West_Jakarta,West Jakarta,2611515,129540000.0,,-6.168333530426025,106.7588882446289,http://dbpedia.org/resource/Indonesia,,,,,Indonesia,,,4,0,0
http://dbpedia.org/resource/Yangjiang,Yangjiang,2602959,7955270000.0,4.0,21.85700035095215,111.9830017089844,,,,,,,,,4,0,0
http://dbpedia.org/resource/Suizhou,Suizhou,2580000,9636000000.0,70.7136,31.69000053405762,113.3820037841797,http://dbpedia.org/resource/China,,,,,China,,392.0,5,0,0
http://dbpedia.org/resource/Chaozhou,Chaozhou,2568387,3145930000.0,,23.65800094604492,116.6220016479492,,,,,,,,,3,0,0
http://dbpedia.org/resource/Yuxi,Yuxi,2568000,15285000000.0,,24.34700012207031,102.5270004272461,http://dbpedia.org/resource/China,,,,,China,,,4,0,0
http://dbpedia.org/resource/Ibadan,Ibadan,2559853,1680000000.0,230.0,7.396389007568359,3.916666746139526,http://dbpedia.org/resource/Nigeria,,985.13,,,Nigeria,,634.0,6,0,0
http://dbpedia.org/resource/Hulunbuir,Hulunbuir,2549278,263953000000.0,,49.20719909667969,119.7711029052734,http://dbpedia.org/resource/China,,,,,China,,372.0,4,0,0
http://dbpedia.org/resource/Sanaa,Sanaa,2545000,126000000.0,2250.0,15.34833335876465,44.20639038085938,http://dbpedia.org/resource/Yemen,,20320.0,,,Yemen,,,6,0,0
http://dbpedia.org/resource/Pu'er_City,Pu'er City,2542898,44264790000.0,1306.0,22.78680038452148,100.9770965576172,http://dbpedia.org/resource/China,,,,,China,,433.0,5,0,0
http://dbpedia.org/resource/Thane,Thane,2537000,147000000.0,7.0,19.19722175598145,72.97222137451172,http://dbpedia.org/resource/India,,17258.0,,,India,,552.0,6,0,0
http://dbpedia.org/resource/Bandung,Bandung,2528163,167310000.0,708.0,-6.912000179290771,107.6097030639648,http://dbpedia.org/resource/Indonesia,,14982.0,,,Indonesia,,885.0,6,0,0
http://dbpedia.org/resource/Dingxi,Dingxi,2524097,19609240000.0,,35.60800170898438,104.5920028686523,http://dbpedia.org/resource/China,,,,,China,,363.0,4,0,0
http://dbpedia.org/resource/Gujranwala,Gujranwala,2511118,240000000.0,231.0,32.15666580200195,74.19000244140625,http://dbpedia.org/resource/Pakistan,,,,,Pakistan,,462.0,5,0,0
http://dbpedia.org/resource/Lishui,Lishui,2506600,17298000000.0,,28.4680004119873,119.9229965209961,http://dbpedia.org/resource/China,,,,,China,,,4,0,0
"http://dbpedia.org/resource/Baoshan,_Yunnan","Baoshan, Yunnan",2506491,19064600000.0,1677.0,25.11199951171875,99.16100311279295,,,,,,,,384.0,4,0,0
http://dbpedia.org/resource/Xuancheng,Xuancheng,2500063,12313000000.0,,30.93899917602539,118.7590026855469,http://dbpedia.org/resource/China,,,,,China,,463.0,4,0,0
http://dbpedia.org/resource/Laibin,Laibin,2498236,13400000000.0,,23.75009918212891,109.2211990356445,,,,,,,,356.0,3,0,0
http://dbpedia.org/resource/Ankang,Ankang,2493436,23391000000.0,,32.68539810180664,109.0289993286133,http://dbpedia.org/resource/China,,,,,China,,429.0,4,0,0
http://dbpedia.org/resource/Zigong,Zigong,2489256,4372600000.0,,29.3390007019043,104.7789993286133,http://dbpedia.org/resource/China,,,,,China,,,4,0,0
http://dbpedia.org/resource/Sanming,Sanming,2486450,22929000000.0,,26.26339912414551,117.6389007568359,,,,,,,,419.0,3,0,0
http://dbpedia.org/resource/Medan,Medan,2486283,265100000.0,2.4384,3.589444398880005,98.67388916015624,http://dbpedia.org/resource/Indonesia,,,,,Indonesia,,,5,0,0
http://dbpedia.org/resource/Huangshi,Huangshi,2469079,4582850000.0,,30.21290016174316,115.0390014648438,,,,,,,,,3,0,0
http://dbpedia.org/resource/Xining,Xining,2467965,7596000000.0,2275.0,36.62239837646484,101.780403137207,http://dbpedia.org/resource/China,,,,,China,,,5,0,0
http://dbpedia.org/resource/Zhuhai,Zhuhai,2439585,1724320000.0,36.0,,,http://dbpedia.org/resource/China,,,,,China,,,3,0,0
http://dbpedia.org/resource/Huludao,Huludao,2434194,10582000000.0,,40.71099853515625,120.8369979858398,http://dbpedia.org/resource/China,,,,,China,,449.0,4,0,0
http://dbpedia.org/resource/Lincang,Lincang,2429505,23620720000.0,1517.0,23.88400077819824,100.088996887207,,,,,,,,,4,0,0
http://dbpedia.org/resource/Medellín,Medellín,2427129,380640000.0,1495.0,6.230833530426025,-75.5905532836914,http://dbpedia.org/resource/Colombia,,6759.0,,,Colombia,,,6,0,0
http://dbpedia.org/resource/Ouagadougou,Ouagadougou,2415266,520000000.0,305.0,12.36861133575439,-1.527500033378601,http://dbpedia.org/resource/Burkina_Faso,,,,,Burkina_Faso,,547.0,5,0,0
http://dbpedia.org/resource/Longnan,Longnan,2407272,27890000000.0,,33.37020111083984,104.9602966308594,http://dbpedia.org/resource/China,,,,,China,,422.0,4,0,0
http://dbpedia.org/resource/Nagpur,Nagpur,2405665,393500000.0,310.0,21.14979934692383,79.08059692382812,http://dbpedia.org/resource/India,,,,,India,,,5,0,0
http://dbpedia.org/resource/Tieling,Tieling,2388294,12966000000.0,,42.28659820556641,123.842399597168,http://dbpedia.org/resource/China,,,,,China,,,4,0,0
http://dbpedia.org/resource/Mecca,Mecca,2385509,1200000000.0,277.0,21.42250061035156,39.82333374023438,http://dbpedia.org/resource/Saudi_Arabia,,,,,Saudi_Arabia,,883.0,5,0,0
http://dbpedia.org/resource/Yunfu,Yunfu,2383400,7813400000.0,133.0,22.91519927978516,112.0445022583008,http://dbpedia.org/resource/China,,,,,China,,,5,0,0
http://dbpedia.org/resource/Guwahati,Guwahati,2376654,216000000.0,50.0,26.17222213745117,91.74583435058594,http://dbpedia.org/resource/Assam,,,,,Assam,,,5,0,0
http://dbpedia.org/resource/Luohe,Luohe,2367490,2617000000.0,,33.58039855957031,114.0166015625,,,,,,,,404.0,3,0,0
http://dbpedia.org/resource/Daegu,Daegu,2365523,1499510000.0,106.0,35.87166595458984,128.6016693115234,,,,,,,,,4,0,0
http://dbpedia.org/resource/Phnom_Penh,Phnom Penh,2352851,679000000.0,11.89,11.56944465637207,104.9211120605469,http://dbpedia.org/resource/Cambodia,,3361.0,,,Cambodia,,,6,0,0
http://dbpedia.org/resource/Gode,Gode,2350000,,,5.952654838562012,43.55157852172852,http://dbpedia.org/resource/Ethiopia,,,,,Ethiopia,,222.0,3,0,0
http://dbpedia.org/resource/Chongzuo,Chongzuo,2347700,17345000000.0,,22.37700080871582,107.3649978637695,,,,,,,,396.0,3,0,0
http://dbpedia.org/resource/Baku,Baku,2344900,2140000000.0,-28.0,40.39527893066406,49.88222122192383,http://dbpedia.org/resource/Azerbaijan,,1096.0,,,Azerbaijan,,,6,0,0
http://dbpedia.org/resource/Nagoya,Nagoya,2331078,326450000.0,,35.18333435058594,136.8999938964844,http://dbpedia.org/resource/Japan,,7140.6,,,Japan,,1364.0,5,0,0
http://dbpedia.org/resource/Konya,Konya,2330024,38873000000.0,1016.0,37.86666488647461,32.48333358764648,http://dbpedia.org/resource/Turkey,,,,,Turkey,,782.0,5,0,0
http://dbpedia.org/resource/Yingkou,Yingkou,2328582,5502000000.0,,40.625,122.2190017700195,http://dbpedia.org/resource/China,,,,,China,,,4,0,0
http://dbpedia.org/resource/Perth,Perth,2309338,,,,,http://dbpedia.org/resource/Australia,,,,,Australia,,1222.0,1,0,0
http://dbpedia.org/resource/Ziyang,Ziyang,2308631,5748000000.0,,30.12899971008301,104.6269989013672,http://dbpedia.org/resource/China,,,,,China,,378.0,4,0,0
http://dbpedia.org/resource/Mashhad,Mashhad,2307177,351000000.0,995.0,36.32638931274414,59.5433349609375,http://dbpedia.org/resource/Iran,,6500.0,,,Iran,,,6,0,0
http://dbpedia.org/resource/Guangyuan,Guangyuan,2305657,16313780000.0,,32.43600082397461,105.8440017700195,http://dbpedia.org/resource/China,,,,,China,,,4,0,0
http://dbpedia.org/resource/Houston,Houston,2304580,1739617314.069381,24.384,29.76277732849121,-95.383056640625,http://dbpedia.org/resource/United_States,,1395.133817634103,,,United_States,,,6,0,0
http://dbpedia.org/resource/Anshun,Anshun,2297339,9269000000.0,1380.0,26.25309944152832,105.9476013183594,http://dbpedia.org/resource/China,,,,,China,,,5,0,0
"http://dbpedia.org/resource/Taoyuan,_Taiwan","Taoyuan, Taiwan",2293509,1220950000.0,,24.99127769470215,121.3143310546875,,,,,,,,,3,0,0
http://dbpedia.org/resource/Mudanjiang,Mudanjiang,2290208,40233000000.0,233.0,44.55139923095703,129.6329040527344,http://dbpedia.org/resource/China,,,,,China,,,5,0,0
http://dbpedia.org/resource/Adana,Adana,2280484,,23.0,37.0,35.32133483886719,http://dbpedia.org/resource/Turkey,,,,,Turkey,,1148.0,4,0,0
http://dbpedia.org/resource/Manaus,Manaus,2279686,11401049962.05576,92.0496,,,http://dbpedia.org/resource/Brazil,,173.857940970078,,,Brazil,,901.0,4,0,0
http://dbpedia.org/resource/Jincheng,Jincheng,2279151,9490000000.0,,35.49100112915039,112.8519973754883,,,,,,,,409.0,3,0,0
http://dbpedia.org/resource/Quzhou,Quzhou,2276184,8846000000.0,,28.97019958496094,118.8592987060547,,,,,,,,,3,0,0
http://dbpedia.org/resource/South_Jakarta,South Jakarta,2264700,154320000.0,,-6.268610954284668,106.8061141967773,http://dbpedia.org/resource/Indonesia,,,,,Indonesia,,175.0,4,0,0
http://dbpedia.org/resource/Yan'an,Yan'an,2255700,37031300000.0,960.0,36.65000152587891,109.4940032958984,http://dbpedia.org/resource/China,,,,,China,,,5,0,0
http://dbpedia.org/resource/Almaty,Almaty,2249500,752000000.0,,43.23333358764648,76.94999694824219,http://dbpedia.org/resource/Kazakhstan,,2992.291728703956,,,Kazakhstan,,,5,0,0
http://dbpedia.org/resource/Cali,Cali,2234400,619000000.0,1018.0,3.420555591583252,-76.52222442626953,http://dbpedia.org/resource/Colombia,,,,,Colombia,,895.0,5,0,0
http://dbpedia.org/resource/Integrated_urban_water_management_in_Medellín,Integrated urban water management in Medellín,2223078,382000000.0,1495.0,6.235925197601318,-75.57513427734375,http://dbpedia.org/resource/Colombia,,5320.75,,,Colombia,,,6,0,0
http://dbpedia.org/resource/Lusaka,Lusaka,2204059,360000000.0,1279.0,-15.41666698455811,28.28333282470703,,,,,,,,,4,0,0
http://dbpedia.org/resource/Dongying,Dongying,2193518,7923260000.0,,37.43399810791016,118.6745986938477,http://dbpedia.org/resource/China,,,,,China,,,4,0,0
http://dbpedia.org/resource/Gaziantep,Gaziantep,2193363,6819000000.0,,37.06277847290039,37.37916564941406,http://dbpedia.org/resource/Turkey,,,,,Turkey,,,4,0,0
http://dbpedia.org/resource/Abu_Dhabi,Abu Dhabi,2189860,972000000.0,27.0,24.46666717529297,54.36666488647461,http://dbpedia.org/resource/United_Arab_Emirates,,,,,United_Arab_Emirates,,,5,0,0
http://dbpedia.org/resource/Dandong,Dandong,2188436,14782000000.0,8.2296,40.12110137939453,124.3943023681641,http://dbpedia.org/resource/China,,,,,China,,,5,0,0
http://dbpedia.org/resource/Multan,Multan,2169915,,,30.19777870178223,71.46971893310547,http://dbpedia.org/resource/Pakistan,,7000.0,,,Pakistan,,712.0,4,0,0
http://dbpedia.org/resource/Ma'anshan,Ma'anshan,2159930,4053000000.0,,31.66900062561035,118.5070037841797,http://dbpedia.org/resource/China,,,,,China,,,4,0,0
"http://dbpedia.org/resource/Qingyang,_Gansu","Qingyang, Gansu",2158400,27119000000.0,,35.70909881591797,107.6436004638672,http://dbpedia.org/resource/China,,,,,China,,,4,0,0
http://dbpedia.org/resource/Jiamusi,Jiamusi,2156505,31528000000.0,82.6008,46.79999923706055,130.3190002441406,http://dbpedia.org/resource/China,,,,,China,,,5,0,0
http://dbpedia.org/resource/Ordos_City,Ordos City,2153638,86752000000.0,1305.0,39.60400009155273,109.7850036621094,http://dbpedia.org/resource/China,,,,,China,,506.0,5,0,0
http://dbpedia.org/resource/Depok,Depok,2145400,199910000.0,93.0,-6.394000053405762,106.8225021362305,http://dbpedia.org/resource/Indonesia,,,,,Indonesia,,391.0,5,0,0
http://dbpedia.org/resource/Brazzaville,Brazzaville,2138236,588000000.0,320.0,-4.266666889190674,15.26666641235352,http://dbpedia.org/resource/Republic_of_the_Congo,,9450.0,,,Republic_of_the_Congo,,,6,0,0
http://dbpedia.org/resource/Havana,Havana,2137847,728260000.0,59.0,23.13666725158691,-82.35888671875,http://dbpedia.org/resource/Cuba,,2942.5,,,Cuba,,,6,0,0
http://dbpedia.org/resource/Aleppo,Aleppo,2098210,190000000.0,379.0,36.20000076293945,37.15999984741211,http://dbpedia.org/resource/Syria,,,,,Syria,,1205.0,5,0,0
http://dbpedia.org/resource/Kunshan,Kunshan,2092496,927680000.0,,31.32200050354004,120.9850006103516,,,,,,,,,3,0,0
"http://dbpedia.org/resource/Viana,_Luanda","Viana, Luanda",2092439,,,-8.90250015258789,13.37222194671631,http://dbpedia.org/resource/Angola,,,,,Angola,,,3,0,0
http://dbpedia.org/resource/Visakhapatnam,Visakhapatnam,2091811,640000000.0,,17.70416641235352,83.29777526855469,http://dbpedia.org/resource/India,,,,,India,,,4,0,0
http://dbpedia.org/resource/Bursa,Bursa,2083698,10422000000.0,100.0,40.18333435058594,29.04999923706055,http://dbpedia.org/resource/Turkey,,,,,Turkey,,,5,0,0
http://dbpedia.org/resource/Kuala_Lumpur,Kuala Lumpur,2075600,243000000.0,63.0,3.147777795791626,101.6952743530273,http://dbpedia.org/resource/Malaysia,,,,,Malaysia,,,5,0,0
"http://dbpedia.org/resource/Jinjiang,_Quanzhou","Jinjiang, Quanzhou",2061551,721700000.0,,24.78160095214844,118.5516967773438,,,,,,,,212.0,3,0,0
http://dbpedia.org/resource/Shangluo,Shangluo,2041231,19562000000.0,,33.8734016418457,109.9186019897461,http://dbpedia.org/resource/China,,,,,China,,,4,0,0
http://dbpedia.org/resource/Sanmenxia,Sanmenxia,2034872,10475000000.0,376.0,34.77320098876953,111.2004013061523,http://dbpedia.org/resource/China,,,,,China,,,5,0,0
http://dbpedia.org/resource/Baicheng,Baicheng,2033058,25683000000.0,154.0,45.61999893188477,122.8379974365234,http://dbpedia.org/resource/China,,,,,China,,,5,0,0
http://dbpedia.org/resource/Gwalior,Gwalior,2032036,414000000.0,247.04,26.21999931335449,78.18000030517578,http://dbpedia.org/resource/India,,5478.0,,,India,,,6,0,0
http://dbpedia.org/resource/Hezhou,Hezhou,2007858,11747000000.0,107.0,24.40419960021973,111.5671997070312,,,,,,,,,4,0,0
http://dbpedia.org/resource/Rajkot,Rajkot,2000000,170000000.0,134.42,22.29999923706055,70.7833023071289,http://dbpedia.org/resource/India,,,,,India,,608.0,5,0,0
http://dbpedia.org/resource/Garoua,Garoua,2000000,,249.0,9.300000190734863,13.39999961853027,http://dbpedia.org/resource/Cameroon,,,,,Cameroon,,285.0,4,0,0
http://dbpedia.org/resource/Puning,Puning,1998619,1620000000.0,10.5,23.29800033569336,116.1660003662109,http://dbpedia.org/resource/China,,,,,China,,318.0,5,0,0
http://dbpedia.org/resource/Minsk,Minsk,1996730,409530000.0,280.6,53.90055465698242,27.5586109161377,http://dbpedia.org/resource/Belarus,,,,,Belarus,,,5,0,0
http://dbpedia.org/resource/Indore,Indore,1994397,530000000.0,550.0,22.7186107635498,75.8550033569336,,,,,,,,,4,0,0
http://dbpedia.org/resource/Karaj,Karaj,1973470,250000000.0,1312.0,35.82916641235352,50.96749877929688,http://dbpedia.org/resource/Iran,,,,,Iran,,580.0,5,0,0
http://dbpedia.org/resource/Huaibei,Huaibei,1970265,2740900000.0,,33.95600128173828,116.7979965209961,http://dbpedia.org/resource/China,,,,,China,,,4,0,0
http://dbpedia.org/resource/Sapporo,Sapporo,1959750,1121260000.0,,43.06194305419922,141.3544464111328,http://dbpedia.org/resource/Japan,,,,,Japan,,841.0,4,0,0
http://dbpedia.org/resource/Mersin,Mersin,1954279,,10.0,36.79999923706055,34.63333511352539,http://dbpedia.org/resource/Turkey,,,,,Turkey,,,4,0,0
http://dbpedia.org/resource/Tangerang,Tangerang,1927815,164550000.0,,-6.17027759552002,106.6402740478516,http://dbpedia.org/resource/Indonesia,,,,,Indonesia,,,4,0,0
"http://dbpedia.org/resource/Hyderabad,_Pakistan","Hyderabad, Pakistan",1921275,993000000.0,13.0,25.3791675567627,68.36833190917969,,,,,,,,307.0,4,0,0
http://dbpedia.org/resource/Peshawar,Peshawar,1905975,215000000.0,331.0,34.01444625854492,71.56749725341797,http://dbpedia.org/resource/Pakistan,,,,,Pakistan,,,5,0,0
http://dbpedia.org/resource/Bucharest,Bucharest,1877155,239004102.8218061,55.8,44.43249893188477,26.10388946533203,http://dbpedia.org/resource/Romania,,7123.0,,,Romania,,1394.0,6,0,0
http://dbpedia.org/resource/Warsaw,Warsaw,1862402,517240000.0,78.0,52.22999954223633,21.01111030578613,http://dbpedia.org/resource/Poland,,3601.0,,,Poland,,,6,0,0
http://dbpedia.org/resource/Yiwu,Yiwu,1859390,1105480000.0,,29.30694389343262,120.0752792358398,http://dbpedia.org/resource/China,,,,,China,,417.0,4,0,0
http://dbpedia.org/resource/Tainan,Tainan,1856642,2191650000.0,,22.98333358764648,120.1833343505859,,,,,,,,1080.0,3,0,0
http://dbpedia.org/resource/Fushun,Fushun,1854372,11272000000.0,,41.88100051879883,123.9570007324219,,,,,,,,,3,0,0
http://dbpedia.org/resource/Pingliang,Pingliang,1848607,11196710000.0,1398.0,35.54240036010742,106.6649017333984,http://dbpedia.org/resource/China,,,,,China,,,5,0,0
http://dbpedia.org/resource/Diyarbakır,Diyarbakır,1833684,15058000000.0,675.0,37.90999984741211,40.2400016784668,http://dbpedia.org/resource/Turkey,,,,,Turkey,,,5,0,0
"http://dbpedia.org/resource/Siping,_Jilin","Siping, Jilin",1814733,14323000000.0,164.0,43.16680145263672,124.3506011962891,http://dbpedia.org/resource/China,,,,,China,,,5,0,0
http://dbpedia.org/resource/Tonghua,Tonghua,1812114,15195000000.0,374.0,41.72829818725586,125.939697265625,http://dbpedia.org/resource/China,,,,,China,,,5,0,0
http://dbpedia.org/resource/Tijuana,Tijuana,1810645,637000000.0,19.812,32.52500152587891,-117.033332824707,http://dbpedia.org/resource/Mexico,,2832.5,,,Mexico,,902.0,6,0,0
http://dbpedia.org/resource/Pingxiang,Pingxiang,1804805,3824000000.0,,27.65900039672852,113.8870010375977,,,,,,,,,3,0,0
http://dbpedia.org/resource/North_Jakarta,North Jakarta,1801963,146660000.0,,-6.186399936676025,106.8293991088867,http://dbpedia.org/resource/Indonesia,,,,,Indonesia,,,4,0,0
http://dbpedia.org/resource/Palembang,Palembang,1801367,352510000.0,7.9248,-2.986111164093018,104.7555541992188,http://dbpedia.org/resource/Indonesia,,,,,Indonesia,,,5,0,0
http://dbpedia.org/resource/Sharjah,Sharjah,1800000,,,25.35750007629395,55.39083480834961,,,,,,,,,2,0,0
http://dbpedia.org/resource/Bhopal,Bhopal,1798218,463000000.0,518.73,23.25988960266113,77.41261291503906,http://dbpedia.org/resource/India,,,,,India,,,5,0,0
http://dbpedia.org/resource/Mosul,Mosul,1792000,180000000.0,223.1136,36.34000015258789,43.13000106811523,http://dbpedia.org/resource/Iraq,,,,,Iraq,,834.0,5,0,0
http://dbpedia.org/resource/Quito,Quito,1763275,197500000.0,2850.0,-0.2199999988079071,-78.51249694824219,http://dbpedia.org/resource/Ecuador,,,,,Ecuador,,,5,0,0
http://dbpedia.org/resource/Montreal,Montreal,1762949,,,45.50888824462891,-73.55416870117188,http://dbpedia.org/resource/Canada,,4833.5,,,Canada,,,4,0,0
http://dbpedia.org/resource/Monrovia,Monrovia,1761032,194250000.0,,6.313333511352539,-10.80138874053955,http://dbpedia.org/resource/Liberia,,9073.40072574748,,,Liberia,,,5,0,0
http://dbpedia.org/resource/Tengzhou,Tengzhou,1756300,1485000000.0,,35.08333206176758,117.1500015258789,http://dbpedia.org/resource/China,,,,,China,,,4,0,0
http://dbpedia.org/resource/Maracaibo,Maracaibo,1752602,,6.0,10.63333320617676,-71.63333129882812,http://dbpedia.org/resource/Venezuela,,1621.629065878273,,,Venezuela,,,5,0,0
http://dbpedia.org/resource/Kigali,Kigali,1745555,730000000.0,1567.0,-1.943888902664185,30.05944442749023,http://dbpedia.org/resource/Rwanda,,,,,Rwanda,,,5,0,0
http://dbpedia.org/resource/Malappuram_metropolitan_area,Malappuram metropolitan area,1729522,858000000.0,,,,http://dbpedia.org/resource/India,,,,,India,,,2,0,0
http://dbpedia.org/resource/Ghaziabad,Ghaziabad,1729000,210000000.0,,28.67000007629395,77.41999816894531,http://dbpedia.org/resource/India,,,,,India,,370.0,4,0,0
http://dbpedia.org/resource/Pimpri-Chinchwad,Pimpri-Chinchwad,1727692,181000000.0,530.0,18.61862182617188,73.8037338256836,http://dbpedia.org/resource/India,,,,,India,,763.0,5,0,0
http://dbpedia.org/resource/Mandalay,Mandalay,1726889,163840000.0,22.0,21.98305511474609,96.08444213867188,http://dbpedia.org/resource/Myanmar,,,,,Myanmar,,,5,0,0
http://dbpedia.org/resource/Haidong,Haidong,1726100,13200000000.0,,36.50180053710938,102.1057968139648,,,,,,,,,3,0,0
http://dbpedia.org/resource/Shuozhou,Shuozhou,1714857,10662000000.0,,39.33169937133789,112.4328994750977,,,,,,,,,3,0,0
http://dbpedia.org/resource/Ulanqab,Ulanqab,1706328,54473600000.0,1378.0,40.99399948120117,113.1320037841797,http://dbpedia.org/resource/China,,,,,China,,,5,0,0
http://dbpedia.org/resource/Guiping,Guiping,1700000,4074000000.0,50.0,23.39999961853027,110.0833358764648,,,,,,,,,4,0,0
http://dbpedia.org/resource/Onitsha,Onitsha,1695000,830000000.0,,6.166666507720947,6.783333301544189,http://dbpedia.org/resource/Nigeria,,,,,Nigeria,,406.0,4,0,0
http://dbpedia.org/resource/Semarang,Semarang,1694740,373780000.0,,-6.989999771118164,110.4225006103516,http://dbpedia.org/resource/Indonesia,,,,,Indonesia,,,4,0,0
http://dbpedia.org/resource/Abuja,Abuja,1693400,1476000000.0,360.0,9.06666660308838,7.483333110809326,http://dbpedia.org/resource/Nigeria,,,,,Nigeria,,720.0,5,0,0
http://dbpedia.org/resource/Puebla_(city),Puebla (city),1692181,534320000.0,2135.0,19.03333282470703,-98.18333435058594,http://dbpedia.org/resource/Mexico,,3204.647915902301,,,Mexico,,745.0,6,0,0
http://dbpedia.org/resource/Barcelona,Barcelona,1686208,101400000.0,12.0,39.5,-3.700000047683716,http://dbpedia.org/resource/Spain,,,,,Spain,,,5,0,0
http://dbpedia.org/resource/Budapest,Budapest,1685209,525100000.0,96.0,47.49250030517578,19.05138969421387,http://dbpedia.org/resource/Hungary,,3209.0,,,Hungary,,,6,0,0
http://dbpedia.org/resource/Patna,Patna,1684222,250000000.0,53.0,25.59403419494629,85.1375503540039,http://dbpedia.org/resource/India,,6800.0,,,India,,1066.0,6,0,0
http://dbpedia.org/resource/Changshu,Changshu,1677050,1264000000.0,,31.6560001373291,120.7529983520508,http://dbpedia.org/resource/China,,,,,China,,418.0,4,0,0
http://dbpedia.org/resource/Ulaanbaatar,Ulaanbaatar,1672627,4703418408.370176,1350.0,47.92194366455078,106.9152755737305,http://dbpedia.org/resource/Mongolia,,311.5844419437539,,,Mongolia,,917.0,6,0,0
http://dbpedia.org/resource/Bayannur,Bayannur,1669915,65788000000.0,,40.74300003051758,107.3870010375977,http://dbpedia.org/resource/China,,,,,China,,,4,0,0
http://dbpedia.org/resource/Jingdezhen,Jingdezhen,1669057,5256000000.0,34.7472,29.29170036315918,117.198600769043,http://dbpedia.org/resource/China,,,,,China,,553.0,5,0,0
"http://dbpedia.org/resource/Nan'an,_Fujian","Nan'an, Fujian",1663542,2036000000.0,,24.96120071411133,118.3849029541016,,,,,,,,,3,0,0
http://dbpedia.org/resource/Conakry,Conakry,1660973,450000000.0,,9.509166717529297,-13.7122220993042,http://dbpedia.org/resource/Guinea,,,,,Guinea,,477.0,4,0,0
http://dbpedia.org/resource/Fuxin,Fuxin,1647280,10316850000.0,,42.02199935913086,121.6699981689453,http://dbpedia.org/resource/China,,,,,China,,,4,0,0
http://dbpedia.org/resource/Ecatepec_de_Morelos,Ecatepec de Morelos,1645352,156176283.0532608,2250.0,19.60972213745117,-99.05999755859376,http://dbpedia.org/resource/Mexico,,10533.6,,,Mexico,,470.0,6,0,0
"http://dbpedia.org/resource/Valencia,_Venezuela","Valencia, Venezuela",1619470,1548000000.0,520.0,10.18333339691162,-68.0,http://dbpedia.org/resource/Venezuela,,1660.239281732517,,,Venezuela,,,6,0,0
http://dbpedia.org/resource/Ludhiana,Ludhiana,1618879,159370000.0,247.0,30.90999984741211,75.8499984741211,http://dbpedia.org/resource/India,,,,,India,,,5,0,0
"http://dbpedia.org/resource/Phoenix,_Arizona","Phoenix, Arizona",1608139,1344929025.935278,331.0,33.58530044555664,-112.0738983154297,http://dbpedia.org/resource/United_States,,1198.04,,,United_States,,1195.0,6,0,0
http://dbpedia.org/resource/Santa_Cruz_de_la_Sierra,Santa Cruz de la Sierra,1606671,1345000000.0,400.0,-17.79999923706055,-63.18333435058594,http://dbpedia.org/resource/Bolivia,,,,,Bolivia,,509.0,5,0,0
http://dbpedia.org/resource/Liaoyang,Liaoyang,1604580,4710000000.0,28.956,41.27899932861328,123.1760025024414,http://dbpedia.org/resource/China,,,,,China,,,5,0,0
http://dbpedia.org/resource/Philadelphia,Philadelphia,1603797,369590000.0,12.0,,,http://dbpedia.org/resource/United_States,,4608.870578348493,,,United_States,,1688.0,4,0,0
http://dbpedia.org/resource/Fukuoka,Fukuoka,1603543,343390000.0,,33.59000015258789,130.4016723632812,http://dbpedia.org/resource/Japan,,,,,Japan,,874.0,4,0,0
http://dbpedia.org/resource/Kisangani,Kisangani,1602144,1910000000.0,447.0,0.5166666507720947,25.20000076293945,http://dbpedia.org/resource/Democratic_Republic_of_the_Congo,,839.0,,,Democratic_Republic_of_the_Congo,,,6,0,0
http://dbpedia.org/resource/Coimbatore,Coimbatore,1601438,257040000.0,427.0,11.00083351135254,76.95555877685547,http://dbpedia.org/resource/India,,6441.0,,,India,,,6,0,0
http://dbpedia.org/resource/Jiangyin,Jiangyin,1595138,987530000.0,,31.8390007019043,120.2949981689453,,,,,,,,370.0,3,0,0
http://dbpedia.org/resource/Agra,Agra,1585704,121000000.0,170.0,27.18000030517578,78.0199966430664,http://dbpedia.org/resource/India,,13000.0,,,India,,,6,0,0
"http://dbpedia.org/resource/León,_Guanajuato","León, Guanajuato",1579803,,1815.0,21.11666679382324,-101.6833343505859,http://dbpedia.org/resource/Mexico,,1428.57798660705,,,Mexico,,,5,0,0
http://dbpedia.org/resource/Thừa_Thiên_Huế_province,Huế,1578600,4947110000.0,24.0,,,http://dbpedia.org/resource/Vietnam,,,,,Vietnam,,,3,0,0
http://dbpedia.org/resource/Meerut,Meerut,1571434,450000000.0,247.0,28.97999954223633,77.70999908447266,http://dbpedia.org/resource/India,,,,,India,,,5,0,0
http://dbpedia.org/resource/Horta_of_Valencia,Horta of Valencia,1567118,631900000.0,,39.46666717529297,-0.3666666746139526,http://dbpedia.org/resource/Spain,,2480.0,,,Spain,,163.0,5,0,0
http://dbpedia.org/resource/Hebi,Hebi,1565973,2299000000.0,,35.74800109863281,114.2969970703125,,,,,,,,323.0,3,0,0
http://dbpedia.org/resource/Quetta,Quetta,1565546,3501000000.0,1680.0,,,http://dbpedia.org/resource/Pakistan,,,,,Pakistan,,412.0,3,0,0
"http://dbpedia.org/resource/Xinghua,_Jiangsu","Xinghua, Jiangsu",1542600,2393350000.0,,32.9119987487793,119.8526000976562,,,,,,,,,3,0,0
http://dbpedia.org/resource/Beihai,Beihai,1539300,3337000000.0,21.0,21.48100090026855,109.120002746582,http://dbpedia.org/resource/China,,,,,China,,,5,0,0
http://dbpedia.org/resource/Prayagraj,Prayagraj,1536218,364929324.7463424,97.999296,25.43583297729492,81.84638977050781,http://dbpedia.org/resource/India,,,,,India,,,5,0,0
"http://dbpedia.org/resource/Kawasaki,_Kanagawa","Kawasaki, Kanagawa",1531646,143010000.0,,35.51666641235352,139.6999969482422,,,,,,,,579.0,3,0,0
http://dbpedia.org/resource/Kobe,Kobe,1522188,557020000.0,,34.68999862670898,135.195556640625,http://dbpedia.org/resource/Japan,,,,,Japan,,,4,0,0
http://dbpedia.org/resource/Ciudad_Juárez,Ciudad Juárez,1512450,321190000.0,1140.0,31.7450008392334,-106.4850006103516,,,4113.246681513897,,,,,657.0,5,0,0
http://dbpedia.org/resource/Baiyin,Baiyin,1512110,20100000000.0,1698.0,36.54510116577148,104.1389007568359,http://dbpedia.org/resource/China,,,,,China,,,5,0,0
http://dbpedia.org/resource/Jodhpur,Jodhpur,1509000,423000000.0,241.0,26.28000068664551,73.0199966430664,http://dbpedia.org/resource/India,,,,,India,,717.0,5,0,0
http://dbpedia.org/resource/Jixi,Jixi,1502060,22488470000.0,230.0,45.29499816894531,130.968994140625,http://dbpedia.org/resource/China,,,,,China,,,5,0,0
http://dbpedia.org/resource/Lomé,Lomé,1500000,99140000.0,10.0,6.130833148956299,1.215277791023254,http://dbpedia.org/resource/Togo,,15000.0,,,Togo,,,6,0,0
http://dbpedia.org/resource/Aguleri,Aguleri,1500000,,,,,http://dbpedia.org/resource/Nigeria,,,,,Nigeria,,107.0,1,0,0
http://dbpedia.org/resource/Harare,Harare,1491740,982300000.0,1490.0,-17.82916641235352,31.05222129821777,http://dbpedia.org/resource/Zimbabwe,,,,,Zimbabwe,,842.0,5,0,0
http://dbpedia.org/resource/Nashik,Nashik,1486053,267000000.0,602.48,19.99749946594238,73.78980255126953,http://dbpedia.org/resource/India,,,,,India,,609.0,5,0,0
http://dbpedia.org/resource/Basra,Basra,1485000,50000000.0,5.0,30.51499938964844,47.81000137329102,http://dbpedia.org/resource/Iraq,,8000.0,,,Iraq,,725.0,6,0,0
"http://dbpedia.org/resource/Fengcheng,_Jiangxi","Fengcheng, Jiangxi",1480000,2845000000.0,31.0,28.19583320617676,115.783332824707,,,,,,,,,4,0,0
http://dbpedia.org/resource/Zhangjiajie,Zhangjiajie,1476521,9518000000.0,,29.11700057983398,110.4789962768555,,,,,,,,,3,0,0
http://dbpedia.org/resource/Zapopan,Zapopan,1476491,893150000.0,1571.0,20.72027778625488,-103.3919448852539,http://dbpedia.org/resource/Mexico,,,,,Mexico,,,5,0,0
http://dbpedia.org/resource/Makassar,Makassar,1474393,175770000.0,0.0,,,http://dbpedia.org/resource/Indonesia,,,,,Indonesia,,579.0,3,0,0
http://dbpedia.org/resource/Daejeon,Daejeon,1470336,539850000.0,,36.34999847412109,127.3850021362305,http://dbpedia.org/resource/South_Korea_national_football_team,,,,,South_Korea_national_football_team,,,4,0,0
http://dbpedia.org/resource/Huangshan_City,Huangshan City,1470000,9807400000.0,,29.71489906311035,118.3376007080078,http://dbpedia.org/resource/China,,,,,China,,,4,0,0
http://dbpedia.org/resource/Adelaide,Adelaide,1469163,,,-34.9275016784668,138.6000061035156,http://dbpedia.org/resource/Australia,,,,,Australia,,,3,0,0
"http://dbpedia.org/resource/Wuwei,_Gansu","Wuwei, Gansu",1464955,33000000000.0,,37.92900085449219,102.6380004882812,http://dbpedia.org/resource/China,,,,,China,,486.0,4,0,0
http://dbpedia.org/resource/Kyoto,Kyoto,1463723,827830000.0,,35.01166534423828,135.7683258056641,http://dbpedia.org/resource/Japan,,,,,Japan,,,4,0,0
http://dbpedia.org/resource/Shuangyashan,Shuangyashan,1462626,26483000000.0,,46.67620086669922,131.1416015625,http://dbpedia.org/resource/China,,,,,China,,405.0,4,0,0
http://dbpedia.org/resource/Pizhou,Pizhou,1462563,2088000000.0,,34.39799880981445,117.8899993896484,,,,,,,,,3,0,0
"http://dbpedia.org/resource/Cixi,_Zhejiang","Cixi, Zhejiang",1462383,1360630000.0,,30.16666603088379,121.2333297729492,http://dbpedia.org/resource/China,,,,,China,,365.0,4,0,0
http://dbpedia.org/resource/Guyuan,Guyuan,1455200,14412830000.0,1777.0,36.0099983215332,106.2570037841797,http://dbpedia.org/resource/China,,,,,China,,,5,0,0
http://dbpedia.org/resource/Kayseri,Kayseri,1452458,17043000000.0,1050.0,38.72249984741211,35.48749923706055,,,,,,,,,4,0,0
http://dbpedia.org/resource/Nouakchott,Nouakchott,1446761,1000000000.0,7.0,18.08527755737305,-15.97249984741211,http://dbpedia.org/resource/Mauritania,,,,,Mauritania,,549.0,5,0,0
http://dbpedia.org/resource/San_Antonio,San Antonio,1434625,1307000000.0,220.0656,,,,,,,,,,,2,0,0
http://dbpedia.org/resource/Ya'an,Ya'an,1434603,15213280000.0,580.0,29.97900009155273,103.0169982910156,http://dbpedia.org/resource/China,,,,,China,,,5,0,0
http://dbpedia.org/resource/South_Tangerang,South Tangerang,1429529,164860000.0,45.83,-6.288888931274414,106.7180557250977,http://dbpedia.org/resource/Indonesia,,,,,Indonesia,,320.0,5,0,0
http://dbpedia.org/resource/Astana,Astana,1423726,810200000.0,347.0,51.13333511352539,71.43333435058594,http://dbpedia.org/resource/Kazakhstan,,1756.764821368129,,,Kazakhstan,,878.0,6,0,0
http://dbpedia.org/resource/Kharkiv,Kharkiv,1421125,350000000.0,152.0,49.98500061035156,36.23110961914062,,,,,,,,1168.0,4,0,0
http://dbpedia.org/resource/Pointe-Noire,Pointe-Noire,1420612,2134000000.0,14.0,-4.797500133514404,11.8502779006958,http://dbpedia.org/resource/Republic_of_the_Congo,,,,,Republic_of_the_Congo,,,5,0,0
"http://dbpedia.org/resource/Wuzhong,_Ningxia","Wuzhong, Ningxia",1415400,,,37.99779891967773,106.198600769043,http://dbpedia.org/resource/China,,,,,China,,,3,0,0
http://dbpedia.org/resource/Faridabad,Faridabad,1414050,204000000.0,198.0,28.42110061645508,77.30780029296875,http://dbpedia.org/resource/India,,,,,India,,578.0,5,0,0
http://dbpedia.org/resource/Medina,Medina,1411599,587927301.046272,620.0,24.46999931335449,39.61000061035156,http://dbpedia.org/resource/Saudi_Arabia,,,,,Saudi_Arabia,,,5,0,0
http://dbpedia.org/resource/Khartoum,Khartoum,1410858,322700000.0,381.0,15.60000038146973,32.5,http://dbpedia.org/resource/Sudan,,,,,Sudan,,649.0,5,0,0
http://dbpedia.org/resource/Owerri,Owerri,1401873,,,5.485000133514404,7.034999847412109,http://dbpedia.org/resource/Nigeria,,,,,Nigeria,,421.0,3,0,0
http://dbpedia.org/resource/Maroua,Maroua,1400000,,384.0,10.59722232818604,14.31583309173584,http://dbpedia.org/resource/Cameroon,,,,,Cameroon,,,4,0,0
http://dbpedia.org/resource/Gwangju,Gwangju,1398538,501240000.0,,35.16527938842773,126.8486099243164,,,,,,,,,3,0,0
http://dbpedia.org/resource/Prague,Prague,1397880,496210000.0,,50.08750152587891,14.42138862609863,http://dbpedia.org/resource/Czech_Republic,,,,,Czech_Republic,,,4,0,0
http://dbpedia.org/resource/Fuqing,Fuqing,1390487,,,25.71666717529297,119.3833312988281,,,,,,,,,2,0,0
http://dbpedia.org/resource/Panjin,Panjin,1389691,3825200000.0,,41.11769866943359,122.0653991699219,http://dbpedia.org/resource/China,,,,,China,,,4,0,0
http://dbpedia.org/resource/San_Diego,San Diego,1386932,964563372.0513332,,32.71500015258789,-117.1624984741211,http://dbpedia.org/resource/United_States,,1643.235342670308,,,United_States,,1392.0,5,0,0
http://dbpedia.org/resource/Dammam,Dammam,1386671,647000000.0,10.0,26.4333324432373,50.09999847412109,http://dbpedia.org/resource/Saudi_Arabia,,,,,Saudi_Arabia,,538.0,5,0,0
http://dbpedia.org/resource/Guadalajara,Guadalajara,1385629,151000000.0,1566.0624,20.67666625976562,-103.3475036621094,http://dbpedia.org/resource/Mexico,,9176.0,,,Mexico,,,6,0,0
http://dbpedia.org/resource/Samsun,Samsun,1382376,1055000000.0,4.0,41.29027938842773,36.33361053466797,http://dbpedia.org/resource/Turkey,,,,,Turkey,,,5,0,0
http://dbpedia.org/resource/Yangquan,Yangquan,1368502,4563000000.0,,37.85710144042969,113.5803985595703,http://dbpedia.org/resource/China,,,,,China,,,4,0,0
http://dbpedia.org/resource/Ningxiang,Ningxiang,1368117,2906000000.0,,28.27799987792969,112.552001953125,http://dbpedia.org/resource/China,,,,,China,,,4,0,0
http://dbpedia.org/resource/Milan,Milan,1366155,181670000.0,120.0,45.46694564819336,9.1899995803833,http://dbpedia.org/resource/Italy,,,,,Italy,,1388.0,5,0,0
http://dbpedia.org/resource/Wenling,Wenling,1366000,,,28.36666679382324,121.3666687011719,http://dbpedia.org/resource/China,,,,,China,,,3,0,0
http://dbpedia.org/resource/Dengzhou,Dengzhou,1366000,2294000000.0,,32.6879997253418,112.0869979858398,http://dbpedia.org/resource/China,,,,,China,,,4,0,0
http://dbpedia.org/resource/Freetown,Freetown,1347559,82480000.0,26.0,8.487222671508789,-13.23555564880371,http://dbpedia.org/resource/Sierra_Leone,,,,,Sierra_Leone,,,5,0,0
http://dbpedia.org/resource/Chizhou,Chizhou,1342764,8399000000.0,,30.6653995513916,117.4916000366211,,,,,,,,394.0,3,0,0
http://dbpedia.org/resource/Tbilisi,Tbilisi,1330217,504300000.0,,41.72249984741211,44.79249954223633,http://dbpedia.org/resource/Georgia,,2496.08,,,Georgia,,,5,0,0
http://dbpedia.org/resource/Gaozhou,Gaozhou,1328658,3270800000.0,,21.9244441986084,110.8422241210938,http://dbpedia.org/resource/China,,,,,China,,308.0,4,0,0
http://dbpedia.org/resource/Tegucigalpa,Tegucigalpa,1326460,1502000000.0,990.0,14.10583305358887,-87.20471954345703,http://dbpedia.org/resource/Honduras,,,,,Honduras,,889.0,5,0,0
http://dbpedia.org/resource/Benxi,Benxi,1326018,8429000000.0,131.0,41.30390167236328,123.7649002075195,,,,,,,,,4,0,0
http://dbpedia.org/resource/Saitama_(city),Saitama (city),1324854,217430000.0,,35.86138916015625,139.6455535888672,,,,,,,,,3,0,0
http://dbpedia.org/resource/Bishkek,Bishkek,1321900,386000000.0,800.0,42.87472152709961,74.61222076416016,http://dbpedia.org/resource/Kyrgyzstan,,,,,Kyrgyzstan,,713.0,5,0,0
http://dbpedia.org/resource/Leizhou,Leizhou,1321091,2523000000.0,,20.9143009185791,110.0967025756836,,,,,,,,,3,0,0
http://dbpedia.org/resource/Mombasa,Mombasa,1311860,,50.0,-4.050000190734863,39.66666793823242,http://dbpedia.org/resource/Kenya,,5495.0,,,Kenya,,748.0,5,0,0
http://dbpedia.org/resource/Tongling,Tongling,1311726,2982000000.0,,30.94499969482422,117.8109970092773,http://dbpedia.org/resource/China,,,,,China,,,4,0,0
http://dbpedia.org/resource/Calgary,Calgary,1306784,,1045.0,,,http://dbpedia.org/resource/Canada,,1592.4,,,Canada,,1260.0,3,0,0
http://dbpedia.org/resource/Dallas,Dallas,1304379,999200000.0,146.9136,32.77916717529297,-96.80889129638672,http://dbpedia.org/resource/United_States,,,,,United_States,,1574.0,5,0,0
http://dbpedia.org/resource/Gorakhpur,Gorakhpur,1300000,226000000.0,75.0,26.76371574401855,83.40391540527344,http://dbpedia.org/resource/India,,,,,India,,485.0,5,0,0
http://dbpedia.org/resource/Callao,Callao,1300000,147850000.0,5.0,-12.05222225189209,-77.13916778564453,http://dbpedia.org/resource/Peru,,,,,Peru,,371.0,5,0,0
http://dbpedia.org/resource/Baishan,Baishan,1296575,17485000000.0,471.0,41.94400024414062,126.4147033691406,http://dbpedia.org/resource/China,,,,,China,,,5,0,0
http://dbpedia.org/resource/Madaripur,Madaripur,1293027,14220000.0,,23.0,90.0,http://dbpedia.org/resource/Bangladesh,,,,,Bangladesh,,,4,0,0
"http://dbpedia.org/resource/Huazhou,_Guangdong","Huazhou, Guangdong",1291668,2354000000.0,,21.66399955749512,110.6396026611328,,,,,,,,313.0,3,0,0
http://dbpedia.org/resource/Sofia,Sofia,1291591,500000000.0,499.872,42.70000076293945,23.32999992370605,http://dbpedia.org/resource/Bulgaria,,,,,Bulgaria,,,5,0,0
http://dbpedia.org/resource/Heihe,Heihe,1286401,54390000000.0,,50.2401008605957,127.5210037231445,http://dbpedia.org/resource/China,,,,,China,,,4,0,0
http://dbpedia.org/resource/Cacuaco,Cacuaco,1279488,312000000.0,,-8.678610801696777,13.49166679382324,http://dbpedia.org/resource/Angola,,,,,Angola,,,4,0,0
http://dbpedia.org/resource/Liuyang,Liuyang,1278928,5008000000.0,,28.16370010375977,113.6433029174805,http://dbpedia.org/resource/China,,,,,China,,,4,0,0
http://dbpedia.org/resource/Dakar,Dakar,1278469,79830000.0,22.0,14.69277763366699,-17.4466667175293,http://dbpedia.org/resource/Senegal,,,,,Senegal,,,5,0,0
http://dbpedia.org/resource/Batam,Batam,1276930,1915000000.0,,1.129999995231628,104.0530548095703,http://dbpedia.org/resource/Indonesia,,,,,Indonesia,,452.0,4,0,0
http://dbpedia.org/resource/Tangier,Tangier,1275428,124000000.0,,35.77666854858398,-5.80388879776001,http://dbpedia.org/resource/Morocco,,7026.0,,,Morocco,,1019.0,5,0,0
http://dbpedia.org/resource/Shymkent,Shymkent,1274296,1170000000.0,506.0,42.31666564941406,69.59583282470703,http://dbpedia.org/resource/Kazakhstan,,,,,Kazakhstan,,,5,0,0
http://dbpedia.org/resource/Antananarivo,Antananarivo,1274225,85000000.0,1276.0,-18.90999984741211,47.52500152587891,http://dbpedia.org/resource/Madagascar,,,,,Madagascar,,,5,0,0
http://dbpedia.org/resource/Xintai,Xintai,1274200,1946000000.0,,35.90900039672852,117.7679977416992,http://dbpedia.org/resource/China,,,,,China,,,4,0,0
http://dbpedia.org/resource/Biên_Hòa,Biên Hòa,1272235,263620000.0,,10.94999980926514,106.8166656494141,http://dbpedia.org/resource/Vietnam,,4826.0,,,Vietnam,,,5,0,0
http://dbpedia.org/resource/Kananga,Kananga,1271704,743000000.0,608.0,-5.89222240447998,22.40277862548828,http://dbpedia.org/resource/Democratic_Republic_of_the_Congo,,,,,Democratic_Republic_of_the_Congo,,,5,0,0
http://dbpedia.org/resource/Soweto,Soweto,1271628,200030000.0,1632.0,-26.2678108215332,27.85848999023438,http://dbpedia.org/resource/South_Africa,,,,,South_Africa,,,5,0,0
http://dbpedia.org/resource/Xiantao,Xiantao,1268715,2538000000.0,31.0,30.32799911499023,113.443000793457,http://dbpedia.org/resource/China,,,,,China,,,5,0,0
"http://dbpedia.org/resource/Fez,_Morocco","Fez, Morocco",1256172,,414.0,34.0433349609375,-5.003333568572998,http://dbpedia.org/resource/Morocco,,3571.444966517624,,,Morocco,,,5,0,0
http://dbpedia.org/resource/Yuyao,Yuyao,1254032,1500800000.0,,30.04999923706055,121.1500015258789,http://dbpedia.org/resource/China,,,,,China,,356.0,4,0,0
http://dbpedia.org/resource/Lijiang,Lijiang,1253878,20557000000.0,2400.0,26.85519981384277,100.2258987426758,,,,,,,,,4,0,0
http://dbpedia.org/resource/Zhangjiagang,Zhangjiagang,1246762,772400000.0,,31.87669944763184,120.5559997558594,,,,,,,,,3,0,0
http://dbpedia.org/resource/Kalyan,Kalyan,1246381,137150000.0,8.84,19.23999977111816,73.12999725341797,http://dbpedia.org/resource/India,,,,,India,,281.0,5,0,0
http://dbpedia.org/resource/Kalyan-Dombivli,Kalyan-Dombivli,1246381,137150000.0,,19.23333358764648,73.13333129882812,http://dbpedia.org/resource/India,,,,,India,,,4,0,0
http://dbpedia.org/resource/Asansol,Asansol,1243414,326000000.0,111.0,23.68000030517578,86.98999786376953,http://dbpedia.org/resource/India,,,,,India,,,5,0,0
http://dbpedia.org/resource/Rugao,Rugao,1241700,1576470000.0,,32.24599838256836,120.5910034179688,http://dbpedia.org/resource/China,,,,,China,,309.0,4,0,0
http://dbpedia.org/resource/Yongcheng,Yongcheng,1241500,2068000000.0,,33.92990112304688,116.4499969482422,http://dbpedia.org/resource/China,,,,,China,,313.0,4,0,0
http://dbpedia.org/resource/Barquisimeto,Barquisimeto,1240714,276000000.0,566.0,10.06361103057861,-69.33472442626953,http://dbpedia.org/resource/Venezuela,,4440.174823238128,,,Venezuela,,479.0,6,0,0
http://dbpedia.org/resource/Dushanbe,Dushanbe,1228400,,823.0,38.53666687011719,68.77999877929688,http://dbpedia.org/resource/Tajikistan,,7722.043170848918,,,Tajikistan,,,5,0,0
http://dbpedia.org/resource/Guatemala_City,Guatemala City,1221739,228700000.0,1500.0,14.65055561065674,-90.4902801513672,http://dbpedia.org/resource/Guatemala,,5552.0,,,Guatemala,,,6,0,0
http://dbpedia.org/resource/Virar,Virar,1221234,,10.0,19.46999931335449,72.80000305175781,http://dbpedia.org/resource/India,,,,,India,,268.0,4,0,0
http://dbpedia.org/resource/Vasai-Virar,Vasai-Virar,1221233,319390000.0,11.0,19.46999931335449,72.80000305175781,http://dbpedia.org/resource/India,,,,,India,,,5,0,0
http://dbpedia.org/resource/Metropolitan_City_of_Bari,Metropolitan City of Bari,1218191,3825000000.0,,41.12527847290039,16.86666679382324,http://dbpedia.org/resource/Italy,,,,,Italy,,,4,0,0
http://dbpedia.org/resource/Zhuji,Zhuji,1218072,2311410000.0,,29.71666717529297,120.2333297729492,http://dbpedia.org/resource/China,,,,,China,,,4,0,0
http://dbpedia.org/resource/Varanasi,Varanasi,1212610,82000000.0,80.71,25.31888961791992,83.01277923583984,,,37500.0,,,,,,5,0,0
http://dbpedia.org/resource/Panzhihua,Panzhihua,1212203,7423420000.0,1157.0,26.58239936828613,101.7183990478516,http://dbpedia.org/resource/China,,,,,China,,380.0,5,0,0
http://dbpedia.org/resource/Beiliu,Beiliu,1211637,2457000000.0,,22.70800018310547,110.3539962768555,http://dbpedia.org/resource/China,,,,,China,,267.0,4,0,0
http://dbpedia.org/resource/Barranquilla,Barranquilla,1206319,154000000.0,17.9832,10.98333358764648,-74.80194091796875,http://dbpedia.org/resource/Colombia,,8618.0,,,Colombia,,,6,0,0
http://dbpedia.org/resource/Qom,Qom,1201158,,936.0,34.63999938964844,50.87638854980469,http://dbpedia.org/resource/Iran,,,,,Iran,,,4,0,0
http://dbpedia.org/resource/Gangaghat,Gangaghat,1200000,,,26.49944496154785,80.40277862548828,http://dbpedia.org/resource/India,,,,,India,,,3,0,0
http://dbpedia.org/resource/Port-au-Prince,Port-au-Prince,1200000,36040000.0,98.0,18.59416580200195,-72.30722045898438,http://dbpedia.org/resource/Haiti,,27395.0,,,Haiti,,662.0,6,0,0
http://dbpedia.org/resource/Hargeisa,Hargeisa,1200000,140000000.0,1334.0,9.563055992126465,44.06750106811523,http://dbpedia.org/resource/Somaliland,,1158.306475627338,,,Somaliland,,549.0,6,0,0
http://dbpedia.org/resource/Baidoa,Baidoa,1200000,,,3.116666555404663,43.65000152587891,http://dbpedia.org/resource/Somalia,,,,,Somalia,,,3,0,0
http://dbpedia.org/resource/Ngaoundéré,Ngaoundéré,1200000,,1212.0,7.316666603088379,13.58333301544189,http://dbpedia.org/resource/Cameroon,,,,,Cameroon,,346.0,4,0,0
http://dbpedia.org/resource/Omdurman,Omdurman,1200000,614900000.0,178.0,15.64999961853027,32.48333358764648,http://dbpedia.org/resource/Sudan,,,,,Sudan,,,5,0,0
http://dbpedia.org/resource/Zhangye,Zhangye,1199515,42000000000.0,,38.92480087280273,100.4498977661133,http://dbpedia.org/resource/China,,,,,China,,447.0,4,0,0
http://dbpedia.org/resource/Hiroshima,Hiroshima,1199391,906680000.0,,34.39138793945312,132.4519500732422,http://dbpedia.org/resource/Japan,,,,,Japan,,,4,0,0
http://dbpedia.org/resource/Belgrade,Belgrade,1197714,389120000.0,117.0,44.81777954101562,20.45694351196289,http://dbpedia.org/resource/Serbia,,3078.0,,,Serbia,,1422.0,6,0,0
http://dbpedia.org/resource/Metropolitan_City_of_Palermo,Metropolitan City of Palermo,1194439,5009280000.0,,,,http://dbpedia.org/resource/Italy,,,,,Italy,,,2,0,0
http://dbpedia.org/resource/Pingdu,Pingdu,1191348,3166540000.0,,36.77690124511719,119.9884033203125,http://dbpedia.org/resource/China,,,,,China,,,4,0,0
http://dbpedia.org/resource/Suwon,Suwon,1191063,121040000.0,,37.26666641235352,127.0166702270508,http://dbpedia.org/resource/South_Korea,,,,,South_Korea,,,4,0,0
http://dbpedia.org/resource/Xuanwei,Xuanwei,1189813,6705000000.0,,26.2180004119873,104.1029968261719,http://dbpedia.org/resource/China,,,,,China,,,4,0,0
"http://dbpedia.org/resource/Salem,_Tamil_Nadu","Salem, Tamil Nadu",1189000,91340000.0,278.0,11.64999961853027,78.1500015258789,http://dbpedia.org/resource/India,,,,,India,,,5,0,0
http://dbpedia.org/resource/Mbandaka,Mbandaka,1187837,460000000.0,370.0,0.0477777794003486,18.25583267211914,http://dbpedia.org/resource/Democratic_Republic_of_the_Congo,,,,,Democratic_Republic_of_the_Congo,,290.0,5,0,0
http://dbpedia.org/resource/Doha,Doha,1186023,132000000.0,,25.28666687011719,51.53333282470703,http://dbpedia.org/resource/Qatar,,,,,Qatar,,,4,0,0
"http://dbpedia.org/resource/Tripoli,_Libya","Tripoli, Libya",1183000,1507000000.0,81.0,32.88722229003906,13.1913890838623,http://dbpedia.org/resource/Libya,,,,,Libya,,,5,0,0
http://dbpedia.org/resource/Srinagar,Srinagar,1180570,294000000.0,1585.0,34.09000015258789,74.79000091552734,http://dbpedia.org/resource/India,,,,,India,,774.0,5,0,0
http://dbpedia.org/resource/Liaoyuan,Liaoyuan,1176645,5125000000.0,260.0,42.88800048828125,125.1446990966797,http://dbpedia.org/resource/China,,,,,China,,427.0,5,0,0
http://dbpedia.org/resource/Aurangabad,Aurangabad,1175116,141000000.0,568.0,19.8799991607666,75.31999969482422,http://dbpedia.org/resource/India,,,,,India,,683.0,5,0,0
http://dbpedia.org/resource/Zhongwei,Zhongwei,1174600,16986100000.0,1225.0,37.50019836425781,105.1968002319336,http://dbpedia.org/resource/China,,,,,China,,375.0,5,0,0
http://dbpedia.org/resource/Pikine,Pikine,1170791,87000000.0,,14.75,-17.39999961853027,http://dbpedia.org/resource/Senegal,,,,,Senegal,,152.0,4,0,0
http://dbpedia.org/resource/Pekanbaru,Pekanbaru,1167599,632260000.0,12.0,0.5091666579246521,101.4452743530273,http://dbpedia.org/resource/Indonesia,,,,,Indonesia,,,5,0,0
"http://dbpedia.org/resource/Yuzhou,_Henan","Yuzhou, Henan",1167000,1472000000.0,,34.14199829101562,113.4889984130859,http://dbpedia.org/resource/China,,,,,China,,,4,0,0
http://dbpedia.org/resource/Dhanbad,Dhanbad,1162472,275000000.0,69.0,23.79980087280273,86.43049621582031,http://dbpedia.org/resource/India,,,,,India,,,5,0,0
"http://dbpedia.org/resource/Yushu,_Jilin","Yushu, Jilin",1160568,4724000000.0,,44.82600021362305,126.5500030517578,,,,,,,,,3,0,0
http://dbpedia.org/resource/Amritsar,Amritsar,1159227,139000000.0,,31.63999938964844,74.86000061035156,http://dbpedia.org/resource/India,,,,,India,,,4,0,0
http://dbpedia.org/resource/Zhoushan,Zhoushan,1157817,1378000000.0,,29.98559951782227,122.2073974609375,http://dbpedia.org/resource/China,,,,,China,,,4,0,0
http://dbpedia.org/resource/Zoucheng,Zoucheng,1155400,1619000000.0,,35.40299987792969,117.0070037841797,http://dbpedia.org/resource/China,,,,,China,,,4,0,0
"http://dbpedia.org/resource/Rangpur,_Assam","Rangpur, Assam",1151050,1599000000.0,95.0,26.96699905395508,94.61900329589844,http://dbpedia.org/resource/India,,,,,India,,142.0,5,0,0
http://dbpedia.org/resource/Leiyang,Leiyang,1150241,2656000000.0,,26.42230033874512,112.8598022460938,,,,,,,,353.0,3,0,0
http://dbpedia.org/resource/Bafoussam,Bafoussam,1146000,402000000.0,1521.0,5.466666698455811,10.41666698455811,http://dbpedia.org/resource/Cameroon,,2865.0,,,Cameroon,,,6,0,0
http://dbpedia.org/resource/Monterrey,Monterrey,1142952,324784509.0361344,540.0,,,http://dbpedia.org/resource/Mexico,,3415.073592307934,,,Mexico,,,4,0,0
http://dbpedia.org/resource/Xinyu,Xinyu,1138873,3177680000.0,,27.81859970092773,114.9167022705078,,,,,,,,,3,0,0
http://dbpedia.org/resource/Kunduz,Kunduz,1136677,112060000.0,351.0,36.72861099243164,68.86805725097656,http://dbpedia.org/resource/Afghanistan,,140.0,,,Afghanistan,,,6,0,0
"http://dbpedia.org/resource/Urban_water_management_in_Monterrey,_Mexico","Urban water management in Monterrey, Mexico",1133814,860700000.0,537.0,25.66666603088379,-100.3000030517578,http://dbpedia.org/resource/Mexico,,1989.0,,,Mexico,,128.0,6,0,0
http://dbpedia.org/resource/Bobo-Dioulasso,Bobo-Dioulasso,1129000,136780000.0,445.0,11.18333339691162,-4.283333301544189,http://dbpedia.org/resource/Burkina_Faso,,,,,Burkina_Faso,,,5,0,0
http://dbpedia.org/resource/Bogor,Bogor,1127408,111390000.0,265.0,-6.59660005569458,106.7972030639648,http://dbpedia.org/resource/Indonesia,,,,,Indonesia,,576.0,5,0,0
http://dbpedia.org/resource/Rui'an,Rui'an,1125000,1271000000.0,,27.78333282470703,120.625,http://dbpedia.org/resource/China,,,,,China,,298.0,4,0,0
http://dbpedia.org/resource/Yingtan,Yingtan,1124906,3554000000.0,,28.2721004486084,117.0394973754883,,,,,,,,335.0,3,0,0
http://dbpedia.org/resource/Touba,Touba,1120824,,35.0,14.86666679382324,-15.88333320617676,http://dbpedia.org/resource/Senegal,,,,,Senegal,,,4,0,0
http://dbpedia.org/resource/Jianli,Jianli,1120822,3508000000.0,,29.84020042419434,112.9048004150391,,,,,,,,,3,0,0
"http://dbpedia.org/resource/Van,_Turkey","Van, Turkey",1118087,,1726.0,38.49416732788086,43.38000106811523,http://dbpedia.org/resource/Turkey,,,,,Turkey,,702.0,4,0,0
"http://dbpedia.org/resource/Jianyang,_Sichuan","Jianyang, Sichuan",1117265,2215000000.0,,30.3799991607666,104.5299987792969,http://dbpedia.org/resource/China,,,,,China,,,4,0,0
http://dbpedia.org/resource/Liling,Liling,1116000,2158000000.0,,27.64609909057617,113.4970016479492,,,,,,,,,3,0,0
http://dbpedia.org/resource/Linhai,Linhai,1114146,2171000000.0,,28.85000038146973,121.1166687011719,http://dbpedia.org/resource/China,,,,,China,,,4,0,0
http://dbpedia.org/resource/Zhucheng,Zhucheng,1109000,2183000000.0,66.0,36.0,119.4166641235352,,,,,,,,,4,0,0
http://dbpedia.org/resource/Islamabad,Islamabad,1108872,220150000.0,666.0,33.69305419921875,73.06388854980469,http://dbpedia.org/resource/Pakistan,,5037.0,,,Pakistan,,777.0,6,0,0
http://dbpedia.org/resource/Tianmen,Tianmen,1105800,2622000000.0,32.0,30.66399955749512,113.1669998168945,http://dbpedia.org/resource/China,,,,,China,,,5,0,0
http://dbpedia.org/resource/Central_Jakarta,Central Jakarta,1103357,48130000.0,,-6.186399936676025,106.8293991088867,http://dbpedia.org/resource/Indonesia,,,,,Indonesia,,172.0,4,0,0
http://dbpedia.org/resource/Shouguang,Shouguang,1103110,2200000000.0,,36.85699844360352,118.7910003662109,http://dbpedia.org/resource/China,,,,,China,,,4,0,0
http://dbpedia.org/resource/Bandar_Lampung,Bandar Lampung,1100109,183770000.0,15.0,-5.449999809265137,105.2666702270508,http://dbpedia.org/resource/Indonesia,,,,,Indonesia,,336.0,5,0,0
http://dbpedia.org/resource/Sendai,Sendai,1098335,786300000.0,,38.26822280883789,140.8694152832031,http://dbpedia.org/resource/Japan,,,,,Japan,,806.0,4,0,0
http://dbpedia.org/resource/Dingzhou,Dingzhou,1095986,1283700000.0,57.6072,38.51599884033203,114.9899978637695,http://dbpedia.org/resource/China,,,,,China,,,5,0,0
http://dbpedia.org/resource/Ulsan,Ulsan,1095014,1057129547.114742,,35.54999923706055,129.3166656494141,http://dbpedia.org/resource/South_Korea,,,,,South_Korea,,,4,0,0
http://dbpedia.org/resource/Maputo,Maputo,1088449,347690000.0,47.0,-25.96666717529297,32.58333206176758,http://dbpedia.org/resource/Mozambique,,,,,Mozambique,,776.0,5,0,0
http://dbpedia.org/resource/Dongyang,Dongyang,1087950,1744050000.0,,29.26666641235352,120.216667175293,http://dbpedia.org/resource/China,,,,,China,,,4,0,0
http://dbpedia.org/resource/Yerevan,Yerevan,1086677,223000000.0,,40.18138885498047,44.51444625854492,http://dbpedia.org/resource/Armenia,,,,,Armenia,,1499.0,4,0,0
http://dbpedia.org/resource/Ezhou,Ezhou,1079353,1593540000.0,,30.39139938354492,114.8948974609375,,,,,,,,431.0,3,0,0
http://dbpedia.org/resource/Ciudad_Nezahualcóyotl,Ciudad Nezahualcóyotl,1077208,63740000.0,2220.0,19.40805625915527,-99.01860809326172,http://dbpedia.org/resource/Mexico,,17423.47766768154,,,Mexico,,,6,0,0
http://dbpedia.org/resource/Howrah,Howrah,1077075,63550000.0,12.0,22.57999992370605,88.3294448852539,http://dbpedia.org/resource/India,,,,,India,,522.0,5,0,0
http://dbpedia.org/resource/Yongin,Yongin,1076369,591320000.0,,37.23333358764648,127.1999969482422,http://dbpedia.org/resource/South_Korea,,1860.44,,,South_Korea,,,5,0,0
http://dbpedia.org/resource/Haining,Haining,1076199,700500000.0,,30.53333282470703,120.6833343505859,http://dbpedia.org/resource/China,,,,,China,,,4,0,0
http://dbpedia.org/resource/Yixing,Yixing,1075800,1996600000.0,,31.36000061035156,119.8150024414062,http://dbpedia.org/resource/China,,,,,China,,,4,0,0
http://dbpedia.org/resource/Kirkuk,Kirkuk,1075000,,350.0,35.46666717529297,44.31666564941406,http://dbpedia.org/resource/Iraq,,,,,Iraq,,685.0,4,0,0
http://dbpedia.org/resource/Santiago_de_los_Caballeros,Santiago de los Caballeros,1074684,524010000.0,175.0,19.45722198486328,-70.68888854980469,http://dbpedia.org/resource/Dominican_Republic,,,,,Dominican_Republic,,,5,0,0
http://dbpedia.org/resource/Ranchi,Ranchi,1073427,175120000.0,651.0,23.36000061035156,85.33000183105469,http://dbpedia.org/resource/India,,,,,India,,710.0,5,0,0
http://dbpedia.org/resource/Asmara,Asmara,1073000,45000000.0,2325.0,15.33583354949951,38.94111251831055,http://dbpedia.org/resource/Eritrea,,19911.0,,,Eritrea,,,6,0,0
http://dbpedia.org/resource/Gongzhuling,Gongzhuling,1073000,4172600000.0,215.0,43.50529861450195,124.8224029541016,http://dbpedia.org/resource/China,,,,,China,,,5,0,0
http://dbpedia.org/resource/Metropolitan_City_of_Catania,Metropolitan City of Catania,1068563,3573680000.0,,37.51666641235352,15.06666660308838,http://dbpedia.org/resource/Italy,,,,,Italy,,,4,0,0
"http://dbpedia.org/resource/Haicheng,_Liaoning","Haicheng, Liaoning",1067905,2576000000.0,17.0,40.88240051269531,122.6852035522461,http://dbpedia.org/resource/China,,,,,China,,,5,0,0
http://dbpedia.org/resource/Goyang,Goyang,1061752,286100000.0,,37.65000152587891,126.8000030517578,http://dbpedia.org/resource/South_Korea,,,,,South_Korea,,,4,0,0
http://dbpedia.org/resource/Denizli,Denizli,1061371,,324.0,37.78333282470703,29.09638977050781,http://dbpedia.org/resource/Turkey,,,,,Turkey,,,4,0,0
http://dbpedia.org/resource/Managua,Managua,1061054,267000000.0,82.97,12.13638877868652,-86.25138854980469,http://dbpedia.org/resource/Nicaragua,,3976.852232987193,,,Nicaragua,,787.0,6,0,0
http://dbpedia.org/resource/Fangchenggang,Fangchenggang,1059100,6181000000.0,,21.68670082092285,108.3546981811523,,,,,,,,368.0,3,0,0
http://dbpedia.org/resource/Jabalpur,Jabalpur,1055525,263490000.0,412.0,23.16666603088379,79.93333435058594,http://dbpedia.org/resource/India,,,,,India,,654.0,5,0,0
http://dbpedia.org/resource/Jiuquan,Jiuquan,1053100,167883000000.0,1483.0,39.7333984375,98.49430084228516,http://dbpedia.org/resource/China,,,,,China,,,5,0,0
http://dbpedia.org/resource/Shaodong,Shaodong,1038416,1778470000.0,,27.25997924804688,111.7442092895508,http://dbpedia.org/resource/China,,,,,China,,341.0,4,0,0
http://dbpedia.org/resource/Panzhou,Panzhou,1034903,4056700000.0,,25.70989990234375,104.4716033935547,,,,,,,,495.0,3,0,0
http://dbpedia.org/resource/Matola,Matola,1032197,373000000.0,3.0,-25.96222305297852,32.45888900756836,http://dbpedia.org/resource/Mozambique,,,,,Mozambique,,194.0,5,0,0
http://dbpedia.org/resource/Sanya,Sanya,1031396,1919580000.0,,18.25333404541016,109.5036087036133,http://dbpedia.org/resource/China,,,,,China,,562.0,4,0,0
http://dbpedia.org/resource/Ashgabat,Ashgabat,1030063,470000000.0,273.0,37.9375,58.38000106811523,http://dbpedia.org/resource/Turkmenistan,,,,,Turkmenistan,,,5,0,0
http://dbpedia.org/resource/Tongxiang,Tongxiang,1029754,727490000.0,,30.63333320617676,120.533332824707,http://dbpedia.org/resource/China,,,,,China,,,4,0,0
http://dbpedia.org/resource/Santo_Domingo,Santo Domingo,1029110,1502000000.0,14.0,,,http://dbpedia.org/resource/Dominican_Republic,,680.0,,,Dominican_Republic,,,4,0,0
http://dbpedia.org/resource/Niamey,Niamey,1026848,552270000.0,,13.51361083984375,2.108888864517212,http://dbpedia.org/resource/Niger,,,,,Niger,,,4,0,0
http://dbpedia.org/resource/Madurai,Madurai,1017865,147970000.0,134.0,9.925200462341309,78.11979675292969,http://dbpedia.org/resource/India,,,,,India,,,5,0,0
http://dbpedia.org/resource/Ottawa,Ottawa,1017449,2790310000.0,70.0,45.42472076416016,-75.69499969482422,http://dbpedia.org/resource/Canada,,364.9,,,Canada,,1311.0,6,0,0
"http://dbpedia.org/resource/Honolulu_County,_Hawaii","Honolulu County, Hawaii",1016508,5511494698.795008,,21.46666717529297,-157.9666595458984,,,652.898750095276,,,,,,4,0,0
http://dbpedia.org/resource/Thủ_Đức,Thảo Điền,1013795,3730000.0,,10.82656097412109,106.7608947753906,http://dbpedia.org/resource/Vietnam,,,,,Vietnam,,,4,0,0
"http://dbpedia.org/resource/San_Jose,_California","San Jose, California",1013240,469772043.4527437,25.0,37.19333267211914,-121.8905563354492,,,2194.871079644657,,,,,,5,0,0
